stop_id,stop_code,stop_name,stop_desc,stop_lat,stop_lon,location_type,parent_station,stop_timezone,level_id
A0328,0328,БУЛ. К. ВЕЛИЧКОВ,,42.70669174194336,23.29991912841797,0,,,
A2545,2545,УЛ. ЛЕСНОВСКА РЕКА,,42.780941009521484,23.392051696777344,0,,,
A2887,2887,БУЛ. РОЖЕН,,42.732398986816406,23.31343650817871,0,,,
A0778,0778,УЛ. ИНЖ. ГЕОРГИ БЕЛОВ,,42.638065338134766,23.40648078918457,0,,,
A1351,1351,УЛ. БРЕЗИТЕ,,42.64561462402344,23.27342987060547,0,,,
A2189,2189,УЛ. СТОИЛ ВОЙВОДА,,42.68888854980469,23.362783432006836,0,,,
TB2849,2849,УЛ. ЧАВДАР МУТАФОВ,,42.655670166015625,23.333250045776367,0,,,
TM0720,0720,НУ ЗА ТАНЦОВО ИЗКУСТВО,,42.678524017333984,23.365325927734375,0,,,
A1714,1714,МОСТА НА СУХАТА РЕКА,,42.62962341308594,23.333330154418945,0,,,
TM0647,0647,ПК СПАРТАК,,42.67554473876953,23.31501007080078,0,,,
A2880,2880,УЛ. БОЯН БОЯНОВ,,42.63715744018555,23.33877944946289,0,,,
TM2299,2299,ТЪРГОВСКИ К-С НАДЕЖДА,,42.726539611816406,23.302371978759766,0,,,
A1058,1058,МЕТРОСТАНЦИЯ ОПЪЛЧЕНСКА,,42.69966506958008,23.312610626220703,0,,,
TB2418,2418,БУЛ. ЦАРИЦА ЙОАНА,,42.71138000488281,23.271894454956055,0,,,
A6772,6772,УЛ. ДЖЕРМАН - ВРЕМЕННА,,42.755043029785156,23.319080352783203,0,,,
A2877,2877,УЛ. ТОДОР ЙОНЧЕВ,,42.64011764526367,23.3436222076416,0,,,
TM1116,1116,НАЦИОНАЛНА ОПЕРА,,42.69830322265625,23.33062744140625,0,,,
A2301,2301,ХАНЧЕТО,,42.70796585083008,23.52028465270996,0,,,
A6394,6394,ТЕХНИЧЕСКИ УНИВЕРСИТЕТ,,42.65624237060547,23.35405921936035,0,,,
A0378,0378,ЖЕНСКИ ПАЗАР,,42.700714111328125,23.318262100219727,0,,,
A2270,2270,129-ТО ОУ,,42.693973541259766,23.3475341796875,0,,,
A1557,1557,СЕЛО СВЕТОВРАЧАНЕ,,42.7829475402832,23.390338897705078,0,,,
A2280,2280,61-ВО ОУ,,42.737953186035156,23.2902889251709,0,,,
A2516,2516,УЛ. БАБА ТОНКА,,42.78771209716797,23.521804809570312,0,,,
A0464,0464,ГАРА ПИОНЕР,,42.6661262512207,23.33755111694336,0,,,
A0830,0830,КВ. ГОРУБЛЯНЕ,,42.62843704223633,23.407920837402344,0,,,
A0314,0314,БУЛ. ГОЦЕ ДЕЛЧЕВ,,42.67246627807617,23.29505729675293,0,,,
A6473,6473,ХЛАДИЛЕН ЗАВОД,,42.708404541015625,23.33249855041504,0,,,
A6469,6469,БЪЛГАРСКО НАЦИОНАЛНО РАДИО,,42.68467712402344,23.333154678344727,0,,,
A2882,2882,МЕТРОСТАНЦИЯ ФР. ЖОЛИО-КЮРИ,,42.67192459106445,23.350372314453125,0,,,
TB1892,1892,УЛ. ГЕН. ВЛ. ДИНЧЕВ,,42.71794128417969,23.273151397705078,0,,,
A0179,0179,БЛ. 28 Ж.К. ЛЕВСКИ-Г,,42.7126350402832,23.38430404663086,0,,,
TB0311,0311,БУЛ. ГОЦЕ ДЕЛЧЕВ,,42.67653274536133,23.289274215698242,0,,,
A6482,6482,ОКОЛОВРЪСТЕН ПЪТ,,42.64147186279297,23.3134822845459,0,,,
A2874,2874,БЛ. 64 Ж.К. СТУДЕНТСКИ ГРАД,,42.6423225402832,23.34490966796875,0,,,
A2875,2875,БЛ. 64 Ж.К. СТУДЕНТСКИ ГРАД,,42.64145278930664,23.34464454650879,0,,,
A6745,6745,ГАРА ПОДУЯНЕ,,42.6963005065918,23.354694366455078,0,,,
A0523,0523,УЛ. ЛАГАДИНА,,42.63043975830078,23.314783096313477,0,,,
TB1911,1911,УЛ. ГОЦЕ ДЕЛЧЕВ,,42.71271896362305,23.274478912353516,0,,,
M18,18,МЛАДОСТ 3,,42.646522521972656,23.383630752563477,0,,,
A0770,0770,ИНСТИТУТ ПО ЧЕРНА МЕТАЛУРГИЯ - ПО ЖЕЛАНИЕ,,42.747657775878906,23.508914947509766,0,,,
A2815,2815,ПАЗАРА КРАСНО СЕЛО,,42.67782211303711,23.286285400390625,0,,,
A1824,1824,УЛ. АЛЕКСАНДЪР ЖЕНДОВ,,42.6806640625,23.357158660888672,0,,,
A2876,2876,УЛ. ТОДОР ЙОНЧЕВ,,42.64046859741211,23.34369659423828,0,,,
A0876,0876,КВ. ОВЧА КУПЕЛ,,42.672088623046875,23.273223876953125,0,,,
A1125,1125,НАЧАЛО КВ. ГНИЛЯНЕ,,42.80520248413086,23.378320693969727,0,,,
A6549,6549,УЛ.ИНДИРА ГАНДИ,,42.71012496948242,23.258878707885742,0,,,
TB1302,1302,ПЛ. РУЧЕЙ,,42.678367614746094,23.29780387878418,0,,,
TB1395,1395,БЪЛГАРСКА ТЕЛЕГРАФНА АГЕНЦИЯ,,42.68594741821289,23.344261169433594,0,,,
TB6717,6717,УЛ. КАМЕН АНДРЕЕВ,,42.69620895385742,23.301664352416992,0,,,
A0834,0834,КВ. ДРАГАЛЕВЦИ,,42.62897491455078,23.30941390991211,0,,,
TB2419,2419,БУЛ. ЦАРИЦА ЙОАНА,,42.711402893066406,23.271392822265625,0,,,
A2231,2231,УЛ. ХАН КУБРАТ,,42.72643280029297,23.289934158325195,0,,,
A2613,2613,МАНАСТИР СВ. ТЕОДОР СТРАТИЛАТ - ПО ЖЕЛАНИЕ,,42.84257888793945,23.277172088623047,0,,,
A1102,1102,МОСТА ЧАВДАР,,42.70046615600586,23.346046447753906,0,,,
A2659,2659,МЕТРОСТАНЦИЯ ЛОМСКО ШОСЕ,,42.74118423461914,23.286832809448242,0,,,
TB0136,0136,БЛ. 135 Ж.К. ЛЮЛИН-10,,42.71501922607422,23.276718139648438,0,,,
TM2085,2085,УЛ. ОПЪЛЧЕНСКА,,42.69852828979492,23.310020446777344,0,,,
TB0138,0138,БЛ. 135 Ж.К. ЛЮЛИН-10,,42.715110778808594,23.276443481445312,0,,,
A0918,0918,МЕСТНОСТ МАНИЛОВ ДОЛ,,42.698848724365234,23.19542694091797,0,,,
A1496,1496,РУСКО ПОСОЛСТВО,,42.67293167114258,23.34746742248535,0,,,
A0505,0505,ГРЕБНА БАЗА - ПО ЖЕЛАНИЕ,,42.59796905517578,23.406251907348633,0,,,
A1760,1760,115-ТИ ПОЩЕНСКИ КЛОН,,42.63176345825195,23.380313873291016,0,,,
A2198,2198,УЛ. СУХОДОЛСКИ ПЪТ - ПО ЖЕЛАНИЕ,,42.71572494506836,23.221330642700195,0,,,
A2857,2857,МЕТРОСТАНЦИЯ ВИТОША,,42.65666198730469,23.31779670715332,0,,,
A2782,2782,УЛ. МОГИЛАТА,,42.656734466552734,23.32694435119629,0,,,
A2878,2878,ДЕТСКА ГРАДИНА 190,,42.63807678222656,23.34186553955078,0,,,
A2881,2881,УЛ. БОЯН БОЯНОВ,,42.63713836669922,23.3382568359375,0,,,
TB0912,0912,МЕТРОСТАНЦИЯ ВИТОША,,42.65980911254883,23.31768226623535,0,,,
A6771,6771,УЛ. ХАЙДУТ СИДЕР,,42.70854187011719,23.28631019592285,0,,,
A6753,6753,ЦЕНТРАЛНИ ХАЛИ,,42.70024490356445,23.3220272064209,0,,,
TB1912,1912,УЛ. ГОЦЕ ДЕЛЧЕВ,,42.712554931640625,23.273866653442383,0,,,
A2335,2335,ЦЕНТРАЛНИ ХАЛИ,,42.699913024902344,23.32374382019043,0,,,
A0298,0298,БУЛ. ВАСИЛ ЛЕВСКИ,,42.69877243041992,23.335731506347656,0,,,
TB2578,2578,102-РО ОУ,,42.73593521118164,23.305038452148438,0,,,
A1897,1897,УЛ. ГЕН. НИКОЛА ГЕНЕВ,,42.718990325927734,23.26276206970215,0,,,
A0020,0020,26-ТИ ДКЦ,,42.72560119628906,23.25493812561035,0,,,
A2146,2146,УЛ. ПРОФ. ВАЙГАНД,,42.69615173339844,23.28091812133789,0,,,
A0395,0395,БУЛ. ЧЕРНИ ВРЪХ,,42.683128356933594,23.31985855102539,0,,,
A1827,1827,УЛ. ЛАЗАРОПОЛЕ,,42.663246154785156,23.245634078979492,0,,,
A1437,1437,РАБОТИЛНИЦАТА,,42.697723388671875,23.44378662109375,0,,,
A6247,6247,БЛ. 541 Ж.К. ЛЮЛИН 5,,42.71334457397461,23.238298416137695,0,,,
TB0927,0927,КИНО ОДЕОН,,42.688594818115234,23.32962989807129,0,,,
A1965,1965,СОФИЙСКА МАТЕМАТИЧЕСКА ГИМНАЗИЯ ПАИСИЙ ХИЛЕНДАРСКИ,,42.701690673828125,23.333913803100586,0,,,
A0459,0459,ГАРА КУРИЛО - ПО ЖЕЛАНИЕ,,42.81829833984375,23.355974197387695,0,,,
TM1717,1717,ОБЩИНА ЛЮЛИН,,42.7154655456543,23.2506160736084,0,,,
A6589,6589,СЕЛИМИЦА,,42.619815826416016,23.18795394897461,0,,,
A6725,6725,БЛ. 480 Ж.К. МЛАДОСТ-4,,42.6264762878418,23.381715774536133,0,,,
TB0018,0018,24-ТИ ДКЦ,,42.73699188232422,23.301040649414062,0,,,
TM2234,2234,УЛ. ХЕМУС,,42.68353271484375,23.3541316986084,0,,,
A1959,1959,УЛ. ИЛИЯ БЕШКОВ,,42.66215896606445,23.404874801635742,0,,,
A2483,2483,ПЪТНОСТРОИТЕЛНА ТЕХНИКА,,42.71150588989258,23.370271682739258,0,,,
A0764,0764,НСБАЛ ПО ОНКОЛОГИЯ,,42.66273498535156,23.358030319213867,0,,,
A1037,1037,СТАДИОНА ГЕРМАН,,42.617862701416016,23.417789459228516,0,,,
A2034,2034,УЛ. ЛУИ АЙЕР,,42.6561279296875,23.29766845703125,0,,,
A2374,2374,МЕТРОСТАНЦИЯ БИЗНЕС ПАРК,,42.62993621826172,23.374134063720703,0,,,
A2620,2620,УЛ. КРУШАТА - ПО ЖЕЛАНИЕ,,42.79292297363281,23.32933807373047,0,,,
A6392,6392,КОЛЕЖ ПО ТЕЛЕКОМУНИКАЦИИ,,42.656620025634766,23.349899291992188,0,,,
TB0447,0447,УЛ. ЙЕРУСАЛИМ,,42.6544189453125,23.37277603149414,0,,,
TM1948,1948,УЛ. ЗОГРАФСКИ МАНАСТИР,,42.70669174194336,23.292194366455078,0,,,
A2723,2723,ПРОМИШЛЕНА ЗОНА УЛ. В. ЛЕВСКИ - ПО ЖЕЛАНИЕ,,42.757843017578125,23.275474548339844,0,,,
TM0299,0299,БУЛ. ВАСИЛ ЛЕВСКИ,,42.688255310058594,23.328706741333008,0,,,
A2722,2722,ПРОМИШЛЕНА ЗОНА УЛ. В. ЛЕВСКИ - ПО ЖЕЛАНИЕ,,42.75764465332031,23.275394439697266,0,,,
A0768,0768,ИНСТИТУТ ПО ЧЕРНА МЕТАЛУРГИЯ - ПО ЖЕЛАНИЕ,,42.74726486206055,23.50932502746582,0,,,
A2517,2517,УЛ. РАЙНА КНЯГИНЯ,,42.78556823730469,23.519235610961914,0,,,
A1157,1157,УЛ. ГЮЕШЕВО,,42.69279861450195,23.295089721679688,0,,,
TB1157,1157,Ул. Гюешево,,42.69279861450195,23.295089721679688,0,,,
TB0617,0617,ЛТУ,,42.65313720703125,23.359683990478516,0,,,
A0722,0722,УЛ. 5007,,42.670772552490234,23.40910530090332,0,,,
A1130,1130,НАЧАЛО С. МЪРЧАЕВО,,42.611366271972656,23.17975425720215,0,,,
TB2827,2827,МЕТРОСТАНЦИЯ СУ СВ. КЛИМЕНТ ОХРИДСКИ,,42.6920166015625,23.33353042602539,0,,,
TM0377,0377,БУЛ. СЛИВНИЦА,,42.70616912841797,23.31774139404297,0,,,
M1,1,СЛИВНИЦА,,42.72660827636719,23.26148223876953,0,,,
TM1055,1055,МЕТРОСТАНЦИЯ ЛЮЛИН,,42.717960357666016,23.256418228149414,0,,,
A1072,1072,ИНТЕР ЕКСПО ЦЕНТЪР,,42.6484260559082,23.395662307739258,0,,,
A1323,1323,ХОТЕЛ ХЕМУС,,42.6778564453125,23.322002410888672,0,,,
A1010,1010,ЛИФТА ДРАГАЛЕВЦИ,,42.620216369628906,23.304960250854492,0,,,
A0456,0456,ГАРА КАЗИЧЕНЕ,,42.65475082397461,23.459762573242188,0,,,
TB1964,1964,СОФИЙСКА МАТЕМАТИЧЕСКА ГИМНАЗИЯ ПАИСИЙ,,42.7009162902832,23.333913803100586,0,,,
A1667,1667,УЛ. ВЕСКО ВЕСЕЛИНОВ,,42.79043197631836,23.445030212402344,0,,,
A2161,2161,УЛ. РИЛСКА ОБИТЕЛ,,42.70148849487305,23.376853942871094,0,,,
A6036,6036,АВТОСТАНЦИЯ КНЯЖЕВО,,42.658695220947266,23.239931106567383,0,,,
A6462,6462,УЛ. ЛЕТОСТРУЙ,,42.708126068115234,23.38016700744629,0,,,
TB1986,1986,УЛ. КАП. Д. СПИСАРЕВСКИ,,42.671634674072266,23.386863708496094,0,,,
A2199,2199,УЛ. СУХОДОЛСКИ ПЪТ - ПО ЖЕЛАНИЕ,,42.715354919433594,23.220977783203125,0,,,
A1259,1259,ПЛОЩАД НА АВИАЦИЯТА,,42.6693229675293,23.367000579833984,0,,,
A1482,1482,УЛ. ДЕТЕЛИНА,,42.71826171875,23.227619171142578,0,,,
TB1567,1567,ПГСС,,42.6795768737793,23.254383087158203,0,,,
TB2112,2112,УЛ. ПИРОТСКА,,42.70048904418945,23.316129684448242,0,,,
TB1256,1256,ПЕТА ГРАДСКА БОЛНИЦА,,42.713157653808594,23.313371658325195,0,,,
TM0298,0298,БУЛ. ВАСИЛ ЛЕВСКИ,,42.69877243041992,23.335731506347656,0,,,
A2879,2879,ДЕТСКА ГРАДИНА 190,,42.63760757446289,23.341705322265625,0,,,
A1740,1740,ТЕХНИЧЕСКИ УНИВЕРСИТЕТ,,42.65665054321289,23.359054565429688,0,,,
A0690,0690,Ж.К. СЛАТИНА,,42.68031311035156,23.37298583984375,0,,,
A2086,2086,УЛ. ОПЪЛЧЕНСКА,,42.701202392578125,23.310205459594727,0,,,
A1166,1166,10-ТИ ДКЦ,,42.70121383666992,23.29251480102539,0,,,
A1969,1969,УЛ. ЙОСИФ ЩРОСМАЙЕР,,42.71169662475586,23.301034927368164,0,,,
A1470,1470,БЛ. 4 Ж.К. СУХАТА РЕКА,,42.69932174682617,23.364822387695312,0,,,
A2166,2166,УЛ. ЛУИ ПАСТЬОР,,42.7208251953125,23.273042678833008,0,,,
A2603,2603,ПЪТЕН ВЪЗЕЛ КАЛОТИНА,,42.77546310424805,23.18109893798828,0,,,
A2533,2533,ПО ЖЕЛАНИЕ - ШОЛЦ БЪЛГАРИЯ,,42.75383377075195,23.493762969970703,0,,,
A2616,2616,СПОРТНА ЗАЛА АРЕНА АРМЕЕЦ,,42.67129898071289,23.370546340942383,0,,,
A1532,1532,СЕЛО ЖЕЛЯВА,,42.744834899902344,23.605302810668945,0,,,
A6146,6146,ГАРА СОФИЯ СЕВЕР,,42.72665786743164,23.313058853149414,0,,,
A1004,1004,ЛЕТИЩЕ ДОБРОСЛАВЦИ - ПО ЖЕЛАНИЕ,,42.81822967529297,23.313974380493164,0,,,
A1924,1924,УЛ. ГЕОРГИ МИНЧЕВ,,42.6899299621582,23.359012603759766,0,,,
A2156,2156,УЛ. РЕСЕНСКА ПОЛЯНА,,42.70943832397461,23.345216751098633,0,,,
TB0623,0623,Ж.К. ИВАН ВАЗОВ,,42.67700958251953,23.30331802368164,0,,,
TM1255,1255,ПЕТА ГРАДСКА БОЛНИЦА,,42.71367645263672,23.314434051513672,0,,,
A2506,2506,ПЪТЕН ВЪЗЕЛ КАЛОТИНА,,42.7762565612793,23.180280685424805,0,,,
A0850,0850,КВ. КЛИСУРА,,42.719146728515625,23.08347511291504,0,,,
A0998,0998,ЛАГЕРА,,42.5118293762207,23.365018844604492,0,,,
A2532,2532,ПО ЖЕЛАНИЕ - ШОЛЦ БЪЛГАРИЯ,,42.753238677978516,23.494596481323242,0,,,
TM1969,1969,УЛ. ЙОСИФ ЩРОСМАЙЕР,,42.71169662475586,23.301034927368164,0,,,
A0511,0511,ЧИТАЛИЩЕ СВ.СВ. КИРИЛ И МЕТОДИЙ,,42.72220993041992,23.270490646362305,0,,,
TB1319,1319,ПЛ. СТОЧНА ГАРА,,42.704166412353516,23.332927703857422,0,,,
A2602,2602,УЛ. ИСКЪР БОЖУРИЩЕ,,42.7675666809082,23.194414138793945,0,,,
A2024,2024,АВТОСТАНЦИЯ ИЗТОК,,42.703208923339844,23.38633155822754,0,,,
A0080,0080,АП ЗЕМЛЯНЕ,,42.682743072509766,23.278718948364258,0,,,
A2570,2570,БЛ. 13 Ж.К. ЗАПАДЕН ПАРК,,42.701961517333984,23.281749725341797,0,,,
A6347,6347,УЛ. УЧЕНИЧЕСКА,,42.71232986450195,23.15094566345215,0,,,
A2297,2297,СТАРАТА ФУРНА - ПО ЖЕЛАНИЕ,,42.843143463134766,23.322124481201172,0,,,
TM2261,2261,УЛ. РАЙСКА ГРАДИНА,,42.66082763671875,23.24851417541504,0,,,
A6773,6773,КРАЯ С. МРАМОР-ВРЕМЕННА,,42.78837203979492,23.272706985473633,0,,,
A2031,2031,УЛ. ЛИЛЯЧЕ,,42.68758773803711,23.265945434570312,0,,,
A2715,2715,КОШАРИТЕ,,42.66078567504883,23.209754943847656,0,,,
A1502,1502,САТИРИЧЕН ТЕАТЪР,,42.69186782836914,23.325531005859375,0,,,
TB0662,0662,Ж.К. МЛАДОСТ-1,,42.65110778808594,23.36748695373535,0,,,
A1730,1730,ТЕЛЕВИЗИОННА КУЛА,,42.677188873291016,23.341140747070312,0,,,
M305,305,ХАДЖИ ДИМИТЪР,,42.70270538330078,23.352645874023438,0,,,
A2321,2321,ХОТЕЛ МАКСИ,,42.6429557800293,23.334463119506836,0,,,
A1017,1017,МЕТРОСТАНЦИЯ ЦАРИГРАДСКО ШОСЕ,,42.649173736572266,23.393587112426758,0,,,
A2114,2114,УЛ. ПИРОТСКА,,42.70181655883789,23.310697555541992,0,,,
A2871,2871,ХИЖА АЛЕКО,,42.583316802978516,23.292236328125,0,,,
TB2869,2869,Ловен парк,,42.66960144042969,23.33261489868164,0,,,
A1343,1343,ПК ДИАНА,,42.66517639160156,23.34286880493164,0,,,
A2381,2381,СТУДЕНТСКИ ГРАД,,42.64527893066406,23.333614349365234,0,,,
A2869,2869,ЛОВЕН ПАРК,,42.66960144042969,23.33261489868164,0,,,
A6744,6744,УЛ. ГЕОРГИ ВОЙТЕХ,,42.64647674560547,23.272764205932617,0,,,
A1422,1422,ПЪРВА ГРАДСКА БОЛНИЦА,,42.68891906738281,23.32312774658203,0,,,
A0720,0720,НУ ЗА ТАНЦОВО ИЗКУСТВО,,42.678524017333984,23.365325927734375,0,,,
A2870,2870,ХИЖА АЛЕКО,,42.58340072631836,23.291946411132812,0,,,
A0289,0289,БУЛ. БРАТЯ БЪКСТОН,,42.6745719909668,23.27880859375,0,,,
A6471,6471,УЛ. МИТРОПОЛИТ КИРИЛ ВИДИНСКИ,,42.681270599365234,23.335792541503906,0,,,
A2090,2090,УЛ. ОРИОН,,42.71820831298828,23.279382705688477,0,,,
A2573,2573,УЛ. БУЛИНА ЛИВАДА,,42.7022819519043,23.28462028503418,0,,,
A6754,6754,УЛ.ОТЕЦ ГЕНАДИЙ - ВРЕМЕННА,,42.624961853027344,23.316062927246094,0,,,
A0563,0563,МАХАЛА ЕЛАТА,,42.50102233886719,23.37225341796875,0,,,
TB1821,1821,Ул. Алеко Константинов,,42.69635009765625,23.34926414489746,0,,,
TB2859,2859,Ловен парк,,42.66971969604492,23.332275390625,0,,,
TM2336,2336,ЦЕНТРАЛНИ ХАЛИ,,42.70001983642578,23.32241439819336,0,,,
A2042,2042,УЛ. МАКГАХАН,,42.70649719238281,23.350177764892578,0,,,
A2624,2624,РЕЗИДЕНШЪЛ ПАРК СОФИЯ,,42.62308883666992,23.37104606628418,0,,,
A0726,0726,ЗАГ ДИНАМИК АД,,42.731876373291016,23.316917419433594,0,,,
A2089,2089,УЛ. ОРЕХОВА ГОРА,,42.66954803466797,23.297460556030273,0,,,
A6507,6507,МЕТРОСТАНЦИА К. ВЕЛИЧКОВ,,42.70187759399414,23.298664093017578,0,,,
A1262,1262,ПЕТТЕ МОГИЛИ,,42.733154296875,23.390132904052734,0,,,
TB1728,1728,ТЕАТЪР СОФИЯ,,42.69606399536133,23.347549438476562,0,,,
A6742,6742,Ж.К. ЗАПАДЕН ПАРК,,42.70071029663086,23.275959014892578,0,,,
A6633,6633,РЕЗИДЕНЦИЯ БОЯНА - ВРЕМЕННА,,42.64813995361328,23.269855499267578,0,,,
A6535,6535,Ул.3-ти март-временна,,42.695533752441406,23.230146408081055,0,,,
A1474,1474,РЕСТОРАНТ ЗЛАТНАТА РИБКА - ПО ЖЕЛАНИЕ,,42.56111526489258,23.451740264892578,0,,,
A6348,6348,УЛ. ЖАН ДЬО ЛАФОНТЕН,,42.71257400512695,23.145954132080078,0,,,
A6781,6781,УЛ. КИРИЛ БЛАГОЕВ - ВРЕМЕННА,,42.75071334838867,23.320261001586914,0,,,
A6743,6743,Ж.К. ЗАПАДЕН ПАРК,,42.70087432861328,23.276155471801758,0,,,
A0649,0649,"Ж.К. ЛЮЛИН-1,2",,42.72992706298828,23.247150421142578,0,,,
TM0411,0411,Бл. 4 ж.к. Сухата река,,42.69934844970703,23.36577033996582,0,,,
A0205,0205,МБАЛ ТОКУДА БОЛНИЦА,,42.667545318603516,23.325454711914062,0,,,
A6777,6777,УЛ. ХИСАРЯ - ВРЕМЕННА,,42.71240234375,23.15143394470215,0,,,
A1264,1264,ПЛ. АЛ.НЕВСКИ,,42.69652557373047,23.330223083496094,0,,,
A1501,1501,САТИРИЧЕН ТЕАТЪР,,42.69226837158203,23.326322555541992,0,,,
A1265,1265,ПЛ. АЛ.НЕВСКИ,,42.69636535644531,23.33006477355957,0,,,
A1423,1423,ПЪРВА ГРАДСКА БОЛНИЦА,,42.689544677734375,23.323333740234375,0,,,
A6775,6775,УЛ. ПЕТЪР МИТОВ - ВРЕМЕННА СПИРКА,,42.691890716552734,23.363142013549805,0,,,
A0767,0767,ИНСТИТУТ ПО ЧЕРНА МЕТАЛУРГИЯ - ПО ЖЕЛАНИЕ,,42.74769592285156,23.50868797302246,0,,,
A6303,6303,УЛ. СЪЗНАНИЕ,,42.71774673461914,23.342920303344727,0,,,
A6548,6548,ПЛ.ЛЪВОВ МОСТ,,42.70473098754883,23.32526206970215,0,,,
TM1778,1778,КВ. ТРИЪГЪЛНИКА,,42.7197265625,23.309185028076172,0,,,
A0750,0750,ЗООПАРКА,,42.65827178955078,23.336671829223633,0,,,
TM2260,2260,УЛ. РАЙСКА ГРАДИНА,,42.66095733642578,23.249032974243164,0,,,
TM1495,1495,РУСКО ПОСОЛСТВО,,42.67270278930664,23.347492218017578,0,,,
TM0381,0381,УЛ. ХАН КУБРАТ,,42.72394561767578,23.304853439331055,0,,,
A0882,0882,КВ. ОВЧА КУПЕЛ,,42.6722412109375,23.27206039428711,0,,,
A6693,6693,СЕЛО НЕГОВАН - ВРЕМЕННА,,42.76894760131836,23.405155181884766,0,,,
TM2595,2595,Ж.К. ГЕО МИЛЕВ,,42.67710494995117,23.37060546875,0,,,
A0544,0544,РИТЕКС АД,,42.66495132446289,23.461883544921875,0,,,
TM0305,0305,БУЛ. ВЪЗКРЕСЕНИЕ,,42.69451141357422,23.29501724243164,0,,,
A0637,0637,Ж.К. КРАСНО СЕЛО,,42.678184509277344,23.28544044494629,0,,,
A1870,1870,УЛ. ВИТИНЯ,,42.700645446777344,23.373994827270508,0,,,
A2054,2054,УЛ. НАРОДНО ХОРО,,42.679931640625,23.269006729125977,0,,,
A1754,1754,УЛ. ВИТИНЯ,,42.70875930786133,23.369178771972656,0,,,
A6776,6776,УЛ. ХИСАРЯ - ВРЕМЕННА,,42.71224594116211,23.151304244995117,0,,,
A6474,6474,ЦЕНТРАЛЕН ГРОБИЩЕН ПАРК,,42.71164321899414,23.332311630249023,0,,,
A6532,6532,УЛ.БЕЛИ БРОД - ВРЕМЕННА,,42.69517135620117,23.220766067504883,0,,,
TB0014,0014,163-ТО ОУ,,42.64536666870117,23.40492820739746,0,,,
A6779,6779,УЛ. ДЖЕРМАН - ВРЕМЕННА,,42.754966735839844,23.320819854736328,0,,,
A6780,6780,УЛ. КИРИЛ БЛАГОЕВ - ВРЕМЕННА,,42.75119400024414,23.320417404174805,0,,,
A2421,2421,УЛ. ПЛОВДИВ,,42.708961486816406,23.2997989654541,0,,,
A6705,6705,ул.Крушва градина - временна,,42.628456115722656,23.316389083862305,0,,,
A1333,1333,ЦЕНТРАЛНА ГАРА,,42.7108039855957,23.320152282714844,0,,,
TB2105,2105,УЛ. ОХРИД,,42.70874786376953,23.31317138671875,0,,,
A0177,0177,ПРОМИШЛЕНА ЗОНА Ж.К. ДРУЖБА 1,,42.671478271484375,23.38226890563965,0,,,
A0558,0558,ЕЗЕРОТО,,42.661865234375,23.396774291992188,0,,,
A0907,0907,ПЪТЕН ВЪЗЕЛ ФИЛИПОВЦИ,,42.717926025390625,23.234050750732422,0,,,
A1352,1352,ПО ЖЕЛАНИЕ,,42.73401641845703,23.267637252807617,0,,,
TM0881,0881,Кв. Овча купел,,42.67121124267578,23.273069381713867,0,,,
A0032,0032,36-ТО СОУ,,42.67348098754883,23.285932540893555,0,,,
A1289,1289,ПЛ. ОРЛОВ МОСТ,,42.690303802490234,23.336395263671875,0,,,
A1321,1321,ПЛ. СТОЧНА ГАРА,,42.70442199707031,23.33055305480957,0,,,
A2456,2456,СТОКОВ БАЗАР ИЛИЯНЦИ,,42.74071502685547,23.317838668823242,0,,,
A6140,6140,УЛ.БУРЯ,,42.66905212402344,23.244749069213867,0,,,
A6307,6307,УЛ. МАКГАХАН-ВРЕМЕННА,,42.70846939086914,23.350757598876953,0,,,
A0041,0041,66-ТО СОУ,,42.67242431640625,23.26175308227539,0,,,
A0460,0460,ГАРА ОБЕЛЯ,,42.73904800415039,23.26454734802246,0,,,
TM0744,0744,СОФАРМА АД,,42.7358283996582,23.317485809326172,0,,,
A2258,2258,УЛ. ЧЕРКОВНА,,42.693416595458984,23.352109909057617,0,,,
A6508,6508,УЛ. ЦАР СИМЕОН,,42.70482635498047,23.298633575439453,0,,,
A6487,6487,МЕТРОСТАНЦИЯ СУ СВ. КЛИМЕНТ ОХРИДСКИ,,42.692264556884766,23.335479736328125,0,,,
A0853,0853,АВТОСТАНЦИЯ КНЯЖЕВО,,42.65862274169922,23.24036979675293,0,,,
A6441,6441,КВ.ОВЧА КУПЕЛ,,42.673404693603516,23.252580642700195,0,,,
A1449,1449,РАЗКЛОНА ЗА АП ДРУЖБА,,42.64963912963867,23.413713455200195,0,,,
A1677,1677,УЛ. 19,,42.602012634277344,23.165945053100586,0,,,
A0085,0085,КОМПЛЕКС НА БАН,,42.65421676635742,23.38918685913086,0,,,
A0261,0261,БОЯНСКА ЦЪРКВА,,42.644222259521484,23.266040802001953,0,,,
A1649,1649,МАХАЛА БАТАРЕЯТА,,42.7092399597168,23.424421310424805,0,,,
OM_N12,,,,42.69062042236328,23.336469650268555,3,OMSt,,-1
TB2036,2036,УЛ. ЛУИ АЙЕР,,42.66410827636719,23.30262565612793,0,,,
TB2689,2689,Ж.К. БОКАР,,42.65974426269531,23.2852840423584,0,,,
TM1718,1718,Община Люлин,,42.71639633178711,23.251596450805664,0,,,
A6502,6502,МОСТА КВ. КРИВИНА,,42.687442779541016,23.453140258789062,0,,,
A2373,2373,МЕТРОСТАНЦИЯ БИЗНЕС ПАРК,,42.6306266784668,23.373281478881836,0,,,
A6768,6768,ХЮНДАЙ БЪЛГАРИЯ,,42.744869232177734,23.318326950073242,0,,,
TB0598,0598,УЛ. ТОДОР КАБЛЕШКОВ,,42.65966033935547,23.29886817932129,0,,,
A6767,6767,ХЮНДАЙ БЪЛГАРИЯ,,42.745094299316406,23.318214416503906,0,,,
A6645,6645,УЛ. 2 - ВРЕМЕННА,,42.74288558959961,23.27417755126953,0,,,
TM1823,1823,УЛ. АЛЕКСАНДЪР ЖЕНДОВ,,42.68099594116211,23.356779098510742,0,,,
A1076,1076,МОСТА КВ. ВИТОША,,42.655452728271484,23.336320877075195,0,,,
A6425,6425,УЛ. Д-Р ИВАН СЕЛИМИНСКИ,,42.697959899902344,23.372892379760742,0,,,
A0290,0290,БУЛ. БЪЛГАРИЯ,,42.6726188659668,23.293699264526367,0,,,
A1156,1156,УЛ. ГЮЕШЕВО,,42.692527770996094,23.29593849182129,0,,,
A6421,6421,УЛ.10,,42.74296188354492,23.271108627319336,0,,,
TB0316,0316,БУЛ. Д-Р Г. М. ДИМИТРОВ,,42.65995407104492,23.349002838134766,0,,,
TB2616,2616,СПОРТНА ЗАЛА  АРЕНА АРМЕЕЦ,,42.67129898071289,23.370546340942383,0,,,
A2458,2458,НИМ,,42.657047271728516,23.271778106689453,0,,,
A6090,6090,БОЯНСКА ЦЪРКВА,,42.644840240478516,23.266582489013672,0,,,
A1783,1783,ТРИЪГЪЛНИКА Ж.К. ЛЮЛИН,,42.72475051879883,23.265518188476562,0,,,
A2333,2333,ЦЕНТРАЛЕН ГРОБИЩЕН ПАРК,,42.711578369140625,23.33714485168457,0,,,
A0533,0533,ДЕТСКИ ЯСЛИ,,42.64793395996094,23.341550827026367,0,,,
A0597,0597,Ж.К. ГЕО МИЛЕВ,,42.676719665527344,23.369674682617188,0,,,
A6757,6757,УЛ. ХИСАРЯ,,42.7037353515625,23.29368782043457,0,,,
A6824,6824,МЕТРОСТАНЦИЯ К. ВЕЛИЧКОВ,,42.70201873779297,23.297054290771484,0,,,
A1204,1204,ОПИТНА СТАНЦИЯ,,42.744834899902344,23.399625778198242,0,,,
A6756,6756,УЛ. ХИСАРЯ,,42.70413589477539,23.293148040771484,0,,,
A2805,2805,БУЛ. АКАД. ИВ. ЕВ. ГЕШОВ,,42.67939376831055,23.301898956298828,0,,,
A2804,2804,БУЛ. АКАД. ИВ. ЕВ. ГЕШОВ,,42.67935562133789,23.30132293701172,0,,,
A1287,1287,ПЛ. ОРЛОВ МОСТ,,42.68933868408203,23.338899612426758,0,,,
A1701,1701,ПРОМИШЛЕНА ЗОНА КАЗИЧЕНЕ,,42.66767120361328,23.447683334350586,0,,,
A0305,0305,БУЛ. ВЪЗКРЕСЕНИЕ,,42.69451141357422,23.29501724243164,0,,,
A6758,6758,Ж.К. МЛАДОСТ-4,,42.62528991699219,23.385162353515625,0,,,
M306,306,ТЕAТРАЛНА,,42.696746826171875,23.346866607666016,0,,,
A6769,6769,СТАДИОН ЛОКОМОТИВ,,42.738014221191406,23.317245483398438,0,,,
A1466,1466,РЕЗИДЕНЦИЯ ВРАНА,,42.63461685180664,23.435850143432617,0,,,
A6604,6604,МС МУСАГЕНИЦА,,42.658782958984375,23.364219665527344,0,,,
TB1818,1818,УЛ. 9 - ПО ЖЕЛАНИЕ,,42.63501739501953,23.35392951965332,0,,,
A1810,1810,ХРАМ СВ. КЛИМЕНТ ОХРИДСКИ,,42.715084075927734,23.252885818481445,0,,,
A2708,2708,УЛ. ОБЗОР,,42.675811767578125,23.232126235961914,0,,,
M10,10,ЖОЛИО КЮРИ,,42.67145919799805,23.350786209106445,0,,,
TB2670,2670,МОДНА КЪЩА АГРЕСИЯ,,42.726898193359375,23.31308364868164,0,,,
TB1809,1809,ХРАМ СВ. КЛИМЕНТ ОХРИДСКИ,,42.7144889831543,23.253820419311523,0,,,
TB2040,2040,УЛ. МАКГАХАН,,42.706321716308594,23.350868225097656,0,,,
TB2672,2672,ГАРА СОФИЯ СЕВЕР,,42.72676467895508,23.316112518310547,0,,,
A1461,1461,РАЗСАДНИК МАЛО БУЧИНО,,42.689353942871094,23.174543380737305,0,,,
A2444,2444,МЕТРОСТАНЦИЯ ОБЕЛЯ,,42.741085052490234,23.27678871154785,0,,,
TM0273,0273,БУЛ. АКАД. ИВ. ГЕШОВ,,42.687103271484375,23.300622940063477,0,,,
A1035,1035,УМБАЛ АЛЕКСАНДРОВСКА,,42.68586349487305,23.306306838989258,0,,,
A6480,6480,УЛ. МАКГАХАН,,42.7082633972168,23.351337432861328,0,,,
A2606,2606,УЛ. ЛЮБЛЯНА,,42.67496109008789,23.263126373291016,0,,,
TB2125,2125,Ж.К. ЛЕВСКИ-В,,42.7098274230957,23.377864837646484,0,,,
TB1739,1739,ПГ ПО ДИЗАЙН ЕЛИСАВЕТА ВАЗОВА,,42.680824279785156,23.30653190612793,0,,,
TM2023,2023,АВТОСТАНЦИЯ ИЗТОК,,42.703269958496094,23.387659072875977,0,,,
A6778,6778,ПАЗАРА ОВЧА КУПЕЛ,,42.68376922607422,23.242206573486328,0,,,
A2471,2471,УЛ. ЙЕРУСАЛИМ,,42.654273986816406,23.371707916259766,0,,,
TB1226,1226,29-ТИ ДКЦ,,42.664306640625,23.297697067260742,0,,,
A0871,0871,КВ. ОБЕЛЯ,,42.74270248413086,23.26567840576172,0,,,
A0660,0660,Ж.К. ЛЕВСКИ Г,,42.711875915527344,23.379968643188477,0,,,
A0078,0078,АП ДРУЖБА,,42.649169921875,23.416156768798828,0,,,
TB0661,0661,Ж.К. МЛАДОСТ-1,,42.651187896728516,23.367910385131836,0,,,
A6770,6770,ПК СПАРТАК - ВРЕМЕННА,,42.67533493041992,23.31468963623047,0,,,
A1772,1772,ТРД,,42.75326919555664,23.273487091064453,0,,,
A2294,2294,ФОХАР АД,,42.64249038696289,23.285898208618164,0,,,
A2662,2662,МЕТРОСТАНЦИЯ ХАН КУБРАТ,,42.7225341796875,23.307165145874023,0,,,
TB0129,0129,БЛ. 108 Ж.К. ДРУЖБА-1,,42.66745376586914,23.391925811767578,0,,,
A2873,2873,УЛ. ВОЙНЕШКИ ПЪТ - ПО ЖЕЛАНИЕ,,42.78580093383789,23.398218154907227,0,,,
TM1279,1279,Пл. Македония,,42.6944465637207,23.314786911010742,0,,,
A2017,2017,УЛ. КУБАДИН,,42.7287483215332,23.300405502319336,0,,,
TB2304,2304,ХАНЧЕТО - ПО ЖЕЛАНИЕ,,42.62648391723633,23.358741760253906,0,,,
A6782,6782,МЕТРОСТАНЦИЯ ХАДЖИ ДИМИТЪР - ВРЕМЕННА,,42.70229721069336,23.351858139038086,0,,,
A2872,2872,УЛ. ВОЙНЕШКИ ПЪТ - ПО ЖЕЛАНИЕ,,42.78538131713867,23.397153854370117,0,,,
TB0371,0371,БУЛ. ПРОФ.ЦВ. ЛАЗАРОВ,,42.67434310913086,23.380556106567383,0,,,
TB0664,0664,Ж.К. МЛАДОСТ-2,,42.645591735839844,23.367431640625,0,,,
TB2062,2062,УЛ. НИШАВА,,42.66994094848633,23.30390739440918,0,,,
A2274,2274,153-ТА ГИМНАЗИЯ,,42.737144470214844,23.31014060974121,0,,,
TB0301,0301,БУЛ. ВИТОША,,42.683738708496094,23.314743041992188,0,,,
TM2825,2825,БУЛ. ВИТОША,,42.69501495361328,23.320009231567383,0,,,
A1172,1172,ОКОЛОВРЪСТЕН ПЪТ,,42.631954193115234,23.3335018157959,0,,,
A0486,0486,86-ТИ ПОЩЕНСКИ КЛОН,,42.614803314208984,23.415592193603516,0,,,
A1626,1626,СТАРАТА ЧЕШМА - ПО ЖЕЛАНИЕ,,42.8121452331543,23.37749481201172,0,,,
A1077,1077,УЛ. ГРАДИНА,,42.67605209350586,23.4647274017334,0,,,
A6397,6397,СТУДЕНТСКА ПОЛИКЛИНИКА,,42.652076721191406,23.34685707092285,0,,,
A6037,6037,МЕТРОСТАНЦИЯ ОВЧА КУПЕЛ,,42.68225860595703,23.270978927612305,0,,,
TB1810,1810,ХРАМ СВ. КЛИМЕНТ ОХРИДСКИ,,42.715084075927734,23.252885818481445,0,,,
A0485,0485,СТОКОВ БАЗАР ИЛИЯНЦИ,,42.73979949951172,23.30927085876465,0,,,
A2704,2704,ХОТЕЛ МОРЕНИ,,42.588768005371094,23.292613983154297,0,,,
A6594,6594,Ж.К. ИВАН ВАЗОВ,,42.67681884765625,23.305835723876953,0,,,
TB0314,0314,БУЛ. ГОЦЕ ДЕЛЧЕВ,,42.67246627807617,23.29505729675293,0,,,
A0018,0018,24-ТИ ДКЦ,,42.73699188232422,23.301040649414062,0,,,
A0296,0296,БУЛ. ВАРДАР,,42.69771194458008,23.286970138549805,0,,,
A6687,6687,УЛ. РАВНЕЦ - ВРЕМЕННА,,42.78969192504883,23.32942008972168,0,,,
TM0633,0633,Ж.К. КРАСНА ПОЛЯНА,,42.69112014770508,23.279178619384766,0,,,
A2107,2107,МЕТРОСТАНЦИЯ ХАДЖИ ДИМИТЪР,,42.70342254638672,23.354555130004883,0,,,
A0332,0332,БУЛ. ЛОМСКО ШОСЕ,,42.73257827758789,23.29690933227539,0,,,
A1842,1842,УЛ. БЕСАРАБИЯ,,42.70679473876953,23.373504638671875,0,,,
TM0018,0018,24-ТИ ДКЦ,,42.73699188232422,23.301040649414062,0,,,
A1020,1020,МАГАЗИН МЕТРО 2,,42.746055603027344,23.228628158569336,0,,,
A1787,1787,ТУРМАЧКА МАХАЛА,,42.47956466674805,23.411375045776367,0,,,
A6067,6067,МУЗЕЙ НА МЕЧКАТА - ПО ЖЕЛАНИЕ,,42.63542556762695,23.225431442260742,0,,,
A6118,6118,СЕМИНАРИЯТА,,42.675506591796875,23.333776473999023,0,,,
A0216,0216,БЛ. 43 Ж.К. ГОРУБЛЯНЕ,,42.635276794433594,23.401025772094727,0,,,
A0525,0525,ДЕТСКИ ДОМ,,42.67369079589844,23.4303035736084,0,,,
TB0227,0227,БЛ. 505 Ж.К. ОВЧА КУПЕЛ-1,,42.6867561340332,23.255456924438477,0,,,
A0432,0432,В.З. БАНКЯ,,42.69620895385742,23.149324417114258,0,,,
TM1166,1166,10-ТИ ДКЦ,,42.70121383666992,23.29251480102539,0,,,
A0110,0110,БЕТОНОВ ВЪЗЕЛ,,42.73645782470703,23.325109481811523,0,,,
A0235,0235,МЕТРОСТАНЦИЯ ДРУЖБА,,42.65920639038086,23.395498275756836,0,,,
M0,0,ОБЕЛЯ,,42.74108123779297,23.276535034179688,0,,,
A2344,2344,ЦЕНТЪР С. ПОДГУМЕР,,42.802860260009766,23.40281867980957,0,,,
A0379,0379,ЖЕНСКИ ПАЗАР,,42.700382232666016,23.31778907775879,0,,,
TB1874,1874,УЛ. ВИТИНЯ,,42.700592041015625,23.371875762939453,0,,,
A0334,0334,БУЛ. ЛОМСКО ШОСЕ,,42.73596954345703,23.294036865234375,0,,,
A6186,6186,ВРЕМЕННА УЧИЛИЩЕТО,,42.617279052734375,23.336278915405273,0,,,
A1759,1759,115-ТИ ПОЩЕНСКИ КЛОН,,42.63245391845703,23.38041877746582,0,,,
A0534,0534,ДЕТСКИ ЯСЛИ,,42.648704528808594,23.341686248779297,0,,,
A6475,6475,ТЕХНОТЕСТ,,42.67795181274414,23.39788055419922,0,,,
A1256,1256,ПЕТА ГРАДСКА БОЛНИЦА,,42.713157653808594,23.313371658325195,0,,,
TM0354,0354,БУЛ. ПАТРИАРХ ЕВТИМИЙ,,42.68925094604492,23.319026947021484,0,,,
A1930,1930,УЛ. ДИМИТЪР ПЕШЕВ,,42.64041519165039,23.413095474243164,0,,,
A2285,2285,64-ТО ОУ,,42.61637496948242,23.337472915649414,0,,,
TM0477,0477,ГАРА СОФИЯ СЕВЕР,,42.72645950317383,23.315311431884766,0,,,
A0397,0397,ХОТЕЛ ХИЛТЪН,,42.68202590942383,23.32075309753418,0,,,
TB2161,2161,УЛ. РИЛСКА ОБИТЕЛ,,42.70148849487305,23.376853942871094,0,,,
A1792,1792,УЛ. 2,,42.74296951293945,23.272974014282227,0,,,
A0890,0890,КВ. ПАВЛОВО,,42.66716003417969,23.26625633239746,0,,,
A0808,0808,КВ. БОЯНА,,42.64949417114258,23.263526916503906,0,,,
A0971,0971,КОРАБЧЕТО,,42.64192199707031,23.405155181884766,0,,,
A0229,0229,БЛ. 519 Ж.К. ОВЧА КУПЕЛ-1,,42.689659118652344,23.259851455688477,0,,,
A1964,1964,СОФИЙСКА МАТЕМАТИЧЕСКА ГИМНАЗИЯ ПАИСИЙ ХИЛЕНДАРСКИ,,42.7009162902832,23.333913803100586,0,,,
TB2677,2677,БЛ. 245 Ж.К. МЛАДОСТ 2,,42.64704132080078,23.368045806884766,0,,,
A6119,6119,УЛ.АКАД.СТ.МЛАДЕНОВ,,42.65354919433594,23.346782684326172,0,,,
M318,318,ГОРНА БАНЯ,,42.68269729614258,23.2419376373291,0,,,
A1403,1403,УЛ. ХИСАРЯ,,42.709327697753906,23.153623580932617,0,,,
TB0484,0484,УЛ. Т. КАБЛЕШКОВ,,42.662105560302734,23.295574188232422,0,,,
TM1631,1631,БУЛ. КРЪСТЬО ПАСТУХОВ,,42.668243408203125,23.401657104492188,0,,,
A0344,0344,БУЛ. НИКОЛА ВАПЦАРОВ,,42.66511154174805,23.318525314331055,0,,,
A0903,0903,КВ. СЛАВОВЦИ - ПО ЖЕЛАНИЕ,,42.79203796386719,23.33504867553711,0,,,
A1528,1528,СЕЛО ДОЛНИ ПАСАРЕЛ,,42.541534423828125,23.497982025146484,0,,,
A2400,2400,ЦЕНТЪР ДОЛНИ ЛОЗЕН,,42.60359191894531,23.49463653564453,0,,,
A0901,0901,КВ. СИМЕОНОВО,,42.61178970336914,23.33932113647461,0,,,
A1275,1275,ПЛ. ЛЪВОВ МОСТ,,42.70508575439453,23.325422286987305,0,,,
A1704,1704,МАГАЗИН ВИТОША,,42.712158203125,23.247188568115234,0,,,
A1064,1064,УЛ. 503,,42.693092346191406,23.380054473876953,0,,,
A0515,0515,ДЕПО ИСКЪР,,42.655052185058594,23.414514541625977,0,,,
A6089,6089,МЕТРОСТАНЦИЯ МИЗИЯ,,42.683807373046875,23.256977081298828,0,,,
TB1856,1856,УЛ. БЯЛО МОРЕ,,42.69926834106445,23.339725494384766,0,,,
A0015,0015,163-ТО ОУ,,42.645225524902344,23.404783248901367,0,,,
A1370,1370,ПО ЖЕЛАНИЕ,,42.848655700683594,23.267671585083008,0,,,
TM2115,2115,НАДЛЕЗ НАДЕЖДА,,42.713741302490234,23.30582618713379,0,,,
TM0873,0873,КВ. ОБЕЛЯ,,42.743350982666016,23.274883270263672,0,,,
A2883,2883,УЛ. БАЛЧО НЕЙКОВ,,42.747859954833984,23.318269729614258,0,,,
A2884,2884,КВ. ИЛИЯНЦИ,,42.754940032958984,23.319969177246094,0,,,
A0483,0483,ГАРА ГОРНА БАНЯ,,42.674312591552734,23.24020004272461,0,,,
A6783,6783,СТАДИОН ЛОКОМОТИВ,,42.738304138183594,23.31682777404785,0,,,
A6411,6411,БУЛ. ПРАГА,,42.688743591308594,23.3131103515625,0,,,
A2886,2886,УЛ. КИРИЛ БЛАГОЕВ,,42.75168228149414,23.320533752441406,0,,,
A0366,0366,БУЛ. ПРАГА,,42.68910217285156,23.31330108642578,0,,,
A1168,1168,ОВЧАРСКИ КОШАРИ,,42.727783203125,23.105470657348633,0,,,
A1290,1290,ПЛ. ОРЛОВ МОСТ,,42.69085693359375,23.33897590637207,0,,,
A1606,1606,СК НА НСА,,42.64401626586914,23.34521484375,0,,,
A2788,2788,66-ТО ОДЗ ПАНЧАРЕВО,,42.59782028198242,23.404695510864258,0,,,
TM0012,0012,140-ТО СОУ,,42.7459602355957,23.274845123291016,0,,,
A1401,1401,ПОСОЛСТВАТА,,42.653079986572266,23.367839813232422,0,,,
A2232,2232,УЛ. ХАН КУБРАТ,,42.72718811035156,23.289989471435547,0,,,
TB6168,6168,ПЕТА ГРАДСКА БОЛНИЦА - ВРЕМЕННА,,42.713096618652344,23.31304359436035,0,,,
A2885,2885,ЦЕНТЪРА КВ. ИЛИЯНЦИ,,42.75124740600586,23.318269729614258,0,,,
A6346,6346,ГАРА ИВАНЯНЕ,,42.717227935791016,23.171157836914062,0,,,
TM1153,1153,СК ЦСКА,,42.67496871948242,23.37649154663086,0,,,
TB1151,1151,СК ЦСКА,,42.67442321777344,23.375240325927734,0,,,
A2221,2221,УЛ. ТЪРНОВО,,42.72292709350586,23.261367797851562,0,,,
M5,5,КОНСТАНТИН ВЕЛИЧКОВ,,42.70185852050781,23.298248291015625,0,,,
TB0764,0764,НСБАЛ ПО ОНКОЛОГИЯ,,42.66273498535156,23.358030319213867,0,,,
A1859,1859,УЛ. БЯЛО МОРЕ,,42.70185852050781,23.339263916015625,0,,,
A2213,2213,УЛ. Т. КАБЛЕШКОВ,,42.665771484375,23.28866958618164,0,,,
A0164,0164,БЛ. 214 Ж.К. БОРОВО,,42.66910171508789,23.280147552490234,0,,,
A0959,0959,КМЕТСТВО ИВАНЯНЕ,,42.707786560058594,23.182781219482422,0,,,
A2065,2065,ХИТ МАРКЕТ ЛЮЛИН,,42.731231689453125,23.26665496826172,0,,,
A2298,2298,ТЪРГОВСКИ К-С НАДЕЖДА,,42.72645568847656,23.30272674560547,0,,,
TB1253,1253,ЗАПАДЕН ПАРК,,42.71498489379883,23.284032821655273,0,,,
A2284,2284,152-РО ОУ,,42.603553771972656,23.175777435302734,0,,,
M14,14,АЛЕКСАНДЪР МАЛИНОВ,,42.646854400634766,23.37613296508789,0,,,
OM_N13,,,,42.69057083129883,23.336469650268555,3,OMSt,,-1
TB0865,0865,УЛ. БИСТРИШКО ШОСЕ,,42.624244689941406,23.35649299621582,0,,,
A1685,1685,ПРОМИШЛЕНА ЗОНА - ПО ЖЕЛАНИЕ,,42.73178482055664,23.229772567749023,0,,,
A0262,0262,ГРОБИЩЕН ПАРК БОЯНА - ПО ЖЕЛАНИЕ,,42.65077590942383,23.27843475341797,0,,,
A6324,6324,Ул. Нешо Бончев,,42.72417449951172,23.33063507080078,0,,,
A0238,0238,БЛ. 6 Ж.К. МЛАДОСТ-1,,42.658172607421875,23.377756118774414,0,,,
A1243,1243,КВ. ПАНЧАРЕВО - ПО ЖЕЛАНИЕ,,42.59633255004883,23.41326332092285,0,,,
A0562,0562,МАХАЛА ЕЛАТА,,42.50123596191406,23.372190475463867,0,,,
A0935,0935,КМЕТСТВО БОЖУРИЩЕ,,42.76295852661133,23.198049545288086,0,,,
A2296,2296,СТАРАТА ФУРНА - ПО ЖЕЛАНИЕ,,42.842891693115234,23.3223819732666,0,,,
A7004,7004,СКАЙ СИТИ,,42.68069839477539,23.366933822631836,0,,,
TB2660,2660,МЕТРОСТАНЦИЯ ЛОМСКО ШОСЕ,,42.73970031738281,23.28782844543457,0,,,
TM1732,1732,ТЕЛЕВИЗИОННА КУЛА,,42.675804138183594,23.34356689453125,0,,,
A0548,0548,ПРОМИШЛЕНА ЗОНА КРИВИНА,,42.6698112487793,23.464370727539062,0,,,
A2818,2818,УЛ. ВРЪПЛИНА,,42.847015380859375,23.27117919921875,0,,,
TB0252,0252,БЛ. 706 Ж.К. ЛЮЛИН-7,,42.71359634399414,23.264684677124023,0,,,
TB0976,0976,Ул. Сребърна,,42.659122467041016,23.32689094543457,0,,,
TB1820,1820,УЛ. АЛЕКСАНДЪР ЖЕНДОВ,,42.677330017089844,23.355905532836914,0,,,
A1642,1642,УЛ. РУЧЕЙ,,42.71807098388672,23.13405418395996,0,,,
A6357,6357,УЛ.БЪЛГАРСКИ ВОИН,,42.71870422363281,23.22342300415039,0,,,
TM2332,2332,ЦЕНТРАЛЕН ГРОБИЩЕН ПАРК,,42.711368560791016,23.33695411682129,0,,,
A1175,1175,ОКОЛОВРЪСТЕН ПЪТ,,42.63414001464844,23.33392906188965,0,,,
A1942,1942,УЛ. СТАРА ПЛАНИНА,,42.711727142333984,23.14434814453125,0,,,
A6572,6572,БУЛ. ПРАГА,,42.68736267089844,23.309816360473633,0,,,
TB6418,6418,Пл.Руски паметник,,42.69241714477539,23.311094284057617,0,,,
TM0754,0754,СТОКОВ БАЗАР ИЛИЯНЦИ,,42.738861083984375,23.317829132080078,0,,,
A1218,1218,ОЦ ОВЧА КУПЕЛ,,42.688663482666016,23.262298583984375,0,,,
TB1242,1242,ПЛ. ВАСИЛ ЛЕВСКИ,,42.69721984863281,23.334951400756836,0,,,
A1336,1336,ПЛОДОХРАНИЛИЩЕ,,42.75381851196289,23.248207092285156,0,,,
A1691,1691,УНСС,,42.65241241455078,23.347440719604492,0,,,
TB1613,1613,СТАДИОН Г. АСПАРУХОВ,,42.706783294677734,23.36210060119629,0,,,
A2709,2709,КВ. ГОРНА БАНЯ,,42.67597579956055,23.228116989135742,0,,,
A6720,6720,БЛ. 20 Ж.К. ЛЕВСКИ В - временна,,42.708526611328125,23.387922286987305,0,,,
TM0727,0727,ЗАГ ДИНАМИК АД,,42.73208236694336,23.31722068786621,0,,,
A0537,0537,ПРОИЗВОДСТВЕН К-С МОСКВА,,42.729183197021484,23.324613571166992,0,,,
TM0671,0671,Ж.К. МОТОПИСТА,,42.66941452026367,23.291912078857422,0,,,
A2567,2567,Ж.К. ЗАПАДЕН ПАРК,,42.70133590698242,23.278112411499023,0,,,
A1393,1393,ПОЛЕТО,,42.804561614990234,23.333086013793945,0,,,
TB1032,1032,МГУ СВ.ИВ.РИЛСКИ,,42.66114807128906,23.352006912231445,0,,,
A2003,2003,УЛ. КОЗЛОДУЙ,,42.70695877075195,23.32329559326172,0,,,
A6131,6131,ПЛ. РУСКИ ПАМЕТНИК,,42.69225311279297,23.310009002685547,0,,,
A6701,6701,Ул. Народен герой-временна,,42.671546936035156,23.260374069213867,0,,,
TB0137,0137,БЛ. 115 Ж.К. ЛЮЛИН-10,,42.71662902832031,23.275550842285156,0,,,
A0028,0028,28-МИ ДКЦ,,42.66543960571289,23.407377243041992,0,,,
TB2679,2679,МЕТРОСТАНЦИЯ Г. М. ДИМИТРОВ,,42.6627082824707,23.356199264526367,0,,,
TB0164,0164,БЛ. 214 Ж.К. БОРОВО,,42.66910171508789,23.280147552490234,0,,,
A0939,0939,ЦЕНТЪРА КВ. ИЛИЯНЦИ - ПО ЖЕЛАНИЕ,,42.75055694580078,23.318456649780273,0,,,
A1282,1282,ПЛ. МАКЕДОНИЯ,,42.693824768066406,23.315004348754883,0,,,
A6155,6155,ВРЕМЕННА 8ТМ,,42.70989227294922,23.245309829711914,0,,,
TB0611,0611,Ж.К. ДРУЖБА-2,,42.64009475708008,23.41623878479004,0,,,
TB2343,2343,ЦЕНТЪР ПО ХИГИЕНА,,42.68182373046875,23.301485061645508,0,,,
A2087,2087,УЛ. ОПЪЛЧЕНСКА,,42.70538330078125,23.313486099243164,0,,,
A1152,1152,СК ЦСКА,,42.674781799316406,23.376832962036133,0,,,
A6700,6700,Ул. Народен герой-временна,,42.671451568603516,23.259946823120117,0,,,
A0024,0024,28-МИ ДКЦ,,42.6648063659668,23.406126022338867,0,,,
A0337,0337,БУЛ. МАДРИД,,42.695960998535156,23.35181427001953,0,,,
A1610,1610,СПОРТНА ЗАЛА ХР. БОТЕВ,,42.6511116027832,23.342227935791016,0,,,
A2215,2215,УЛ. ТОДОРИНИ КУКЛИ,,42.70144271850586,23.359859466552734,0,,,
A0113,0113,БЕТОНОВ ВЪЗЕЛ - ПО ЖЕЛАНИЕ,,42.753883361816406,23.275592803955078,0,,,
A1114,1114,НАДЛЕЗ НАДЕЖДА,,42.71486282348633,23.31186294555664,0,,,
A2138,2138,УЛ. ПРОБУДА,,42.737586975097656,23.327199935913086,0,,,
OM_N14,,,,42.69060134887695,23.336389541625977,3,OMSt,,-2
A2378,2378,ШУМАКО - ПО ЖЕЛАНИЕ,,42.60124588012695,23.350980758666992,0,,,
TB1799,1799,КУЛТУРЕН ЦЕНТЪР ЛЮЛИН,,42.71821975708008,23.24678611755371,0,,,
TB0605,0605,Ж.К. ДРУЖБА-1,,42.65379333496094,23.41358184814453,0,,,
TB0146,0146,БЛ. 170 Ж.К. ДРУЖБА-1,,42.65573501586914,23.40729522705078,0,,,
TB0257,0257,БЛ. 98 Ж.К. ДРУЖБА-1,,42.66780471801758,23.386293411254883,0,,,
TB0147,0147,БЛ. 170 Ж.К. ДРУЖБА-1,,42.656375885009766,23.405868530273438,0,,,
TB0339,0339,БУЛ. ГЕН.Н.СТОЛЕТОВ,,42.71107864379883,23.310379028320312,0,,,
TB1246,1246,ПАРАКЛИС СВ.ИВ.РИЛСКИ,,42.661659240722656,23.273540496826172,0,,,
A1217,1217,РАЗКЛОНА ЗА ЛИФТ ДРАГАЛЕВЦИ - ПО ЖЕЛАНИЕ,,42.622310638427734,23.304250717163086,0,,,
TB1224,1224,29-ТИ ДКЦ,,42.66387176513672,23.29688262939453,0,,,
A0203,0203,БЛ. 39 Ж.К. ГОРУБЛЯНЕ,,42.63430404663086,23.398958206176758,0,,,
A0900,0900,УЛ. ЛЮБЛЯНА,,42.674800872802734,23.264266967773438,0,,,
A1856,1856,УЛ. БЯЛО МОРЕ,,42.69926834106445,23.339725494384766,0,,,
A2548,2548,АВТОБАЗА ИСКЪР,,42.677818298339844,23.38956069946289,0,,,
A6021,6021,Ж.К. ГЕО МИЛЕВ,,42.677066802978516,23.368722915649414,0,,,
A0741,0741,ЗИМЕН ДВОРЕЦ НА СПОРТА,,42.64457702636719,23.3419246673584,0,,,
A0979,0979,НАЧАЛО С. ЛОКОРСКО,,42.78798294067383,23.44464111328125,0,,,
A1634,1634,ХЮНДАЙ БЪЛГАРИЯ,,42.745361328125,23.318359375,0,,,
TB1265,1265,ПЛ. АЛ.НЕВСКИ,,42.69636535644531,23.33006477355957,0,,,
A1975,1975,УЛ. КАЛИМАНЦИ,,42.68998336791992,23.353588104248047,0,,,
TM0365,0365,БУЛ. ПРАГА,,42.68925476074219,23.314167022705078,0,,,
TB0287,0287,БУЛ. АЛ. СТАМБОЛИЙСКИ,,42.69853591918945,23.302888870239258,0,,,
A6075,6075,Ж.К. ЛЕВСКИ Г,,42.71192169189453,23.388029098510742,0,,,
A1225,1225,УЛ. ПАТРИАРХ ДАМЯН,,42.73337936401367,23.301807403564453,0,,,
A1315,1315,ПЛ. СТОЧНА ГАРА,,42.70574951171875,23.334423065185547,0,,,
A6164,6164,БУЛ. П.ЕВТИМИЙ ВР.,,42.68829345703125,23.31871795654297,0,,,
A1808,1808,УЛ. 6-ТИ СЕПТЕМВРИ,,42.68486022949219,23.325286865234375,0,,,
A2724,2724,ПРОМИШЛЕНА ЗОНА Ж.К. ДРУЖБА 1,,42.67110824584961,23.382230758666992,0,,,
TM0410,0410,БЛ. 4 Ж.К. СУХАТА РЕКА,,42.6995849609375,23.367334365844727,0,,,
TB0396,0396,ХОТЕЛ ХИЛТЪН,,42.685203552246094,23.321212768554688,0,,,
A1871,1871,УЛ. ВИТИНЯ,,42.7054443359375,23.36916732788086,0,,,
TM2398,2398,БЛ. 539 Ж.К.ЛЮЛИН-5,,42.71156311035156,23.24163055419922,0,,,
A1694,1694,СТУДЕНТСКИ ГРАД,,42.64656066894531,23.346452713012695,0,,,
A1797,1797,УЛ. ДЕМОКРАЦИЯ,,42.684085845947266,23.16363525390625,0,,,
TB2482,2482,УЛ. ВИТИНЯ,,42.70905685424805,23.368946075439453,0,,,
TM1277,1277,ПЛ. ЛЪВОВ МОСТ,,42.70450210571289,23.32377815246582,0,,,
A0916,0916,ВОЕННОРЕМОНТЕН ЗАВОД,,42.75692367553711,23.20846176147461,0,,,
A2257,2257,УЛ. ЦВЕТНА ГРАДИНА,,42.6328010559082,23.409038543701172,0,,,
A1727,1727,ТЕАТЪР СОФИЯ,,42.69622802734375,23.345945358276367,0,,,
A6517,6517,БУЛ. БОТЕВГРАДСКО ШОСЕ,,42.7097282409668,23.421920776367188,0,,,
A0999,0999,ЛАГЕРА,,42.51173400878906,23.364877700805664,0,,,
A2660,2660,МЕТРОСТАНЦИЯ ЛОМСКО ШОСЕ,,42.73970031738281,23.28782844543457,0,,,
A1276,1276,ПЛ. ЛЪВОВ МОСТ,,42.70403289794922,23.323572158813477,0,,,
A6583,6583,УЛ. АТ. МАНЧЕВ,,42.648887634277344,23.34621810913086,0,,,
A6399,6399,УЛ. ОДРИН,,42.70100021362305,23.304285049438477,0,,,
A1174,1174,ОКОЛОВРЪСТЕН ПЪТ,,42.62302017211914,23.405044555664062,0,,,
A6120,6120,ТЕХНИЧЕСКИ УНИВЕРСИТЕТ,,42.65534591674805,23.353897094726562,0,,,
TB0868,0868,КВ. МАНАСТИРСКИ ЛИВАДИ,,42.656951904296875,23.284931182861328,0,,,
TB1696,1696,Ж.К. ИЗТОК,,42.671512603759766,23.364051818847656,0,,,
TB1998,1998,УЛ. КНЯЗ БОРИС I,,42.7047233581543,23.322837829589844,0,,,
A0614,0614,ЛТУ,,42.65384292602539,23.359764099121094,0,,,
A0978,0978,НАЧАЛО С. ЛОКОРСКО,,42.78809356689453,23.444711685180664,0,,,
A0451,0451,ГАРА ЗАХАРНА ФАБРИКА,,42.71273422241211,23.292823791503906,0,,,
TB1198,1198,УМБАЛ СВ. АННА-УХО,,42.660194396972656,23.374088287353516,0,,,
A0046,0046,УЛ. ПОЩЕНСКА,,42.72170639038086,23.341947555541992,0,,,
A0276,0276,БУЛ. АЛ. ПУШКИН,,42.66297149658203,23.265701293945312,0,,,
A0331,0331,УЛ. ХРИСТО СИЛЯНОВ,,42.7327880859375,23.29589080810547,0,,,
OM_N15,,,,42.69066619873047,23.336442947387695,3,OMSt,,-2
A0377,0377,БУЛ. СЛИВНИЦА,,42.70616912841797,23.31774139404297,0,,,
TM0879,0879,Кв. Овча купел,,42.67160415649414,23.27252960205078,0,,,
TB0159,0159,БЛ. 206 Ж.К. ДРУЖБА-2,,42.65508270263672,23.39957618713379,0,,,
TB2300,2300,ХАНЧЕТО - ПО ЖЕЛАНИЕ,,42.62678909301758,23.358610153198242,0,,,
TB1977,1977,УЛ. КАМЕН АНДРЕЕВ,,42.69546890258789,23.300479888916016,0,,,
TB2417,2417,БЛ. 226 Ж.К. ДРУЖБА-2,,42.654197692871094,23.40126609802246,0,,,
TB2805,2805,БУЛ. АКАД. ИВ. ЕВ. ГЕШОВ,,42.67939376831055,23.301898956298828,0,,,
TB1488,1488,БЛ. 405 Ж.К. ДРУЖБА-2,,42.642356872558594,23.407215118408203,0,,,
TB6416,6416,УЛ. Г. С. РАКОВСКИ,,42.68639373779297,23.323009490966797,0,,,
TB0426,0426,КВ. МАЛИНОВА ДОЛИНА - ПО ЖЕЛАНИЕ,,42.637874603271484,23.353260040283203,0,,,
TB0210,0210,БЛ. 41 Ж.К. МЛАДОСТ-1,,42.65591049194336,23.375173568725586,0,,,
A6789,6789,УЛ. 507 - ВРЕМЕННА,,42.69147491455078,23.379932403564453,0,,,
A6790,6790,УЛ. 514 - ВРЕМЕННА,,42.69010925292969,23.381166458129883,0,,,
A2705,2705,АВТОСТАНЦИЯ ОВЧА КУПЕЛ,,42.67280578613281,23.272069931030273,0,,,
A1216,1216,РАЗКЛОНА ЗА ЛИФТ ДРАГАЛЕВЦИ - ПО ЖЕЛАНИЕ,,42.62224578857422,23.30475616455078,0,,,
TM0607,0607,Ж.К. ДРУЖБА-1,,42.670475006103516,23.39715576171875,0,,,
TB0023,0023,ОНКОЛОГИЧЕН ДИСПАНСЕР,,42.65459442138672,23.369077682495117,0,,,
A0324,0324,БУЛ. КНЯГИНЯ МАРИЯ ЛУИЗА,,42.71260070800781,23.314861297607422,0,,,
A1584,1584,СЕРВИЗ ПОЛМО,,42.729251861572266,23.344234466552734,0,,,
TB1965,1965,СОФИЙСКА МАТЕМАТИЧЕСКА ГИМНАЗИЯ ПАИСИЙ,,42.701690673828125,23.333913803100586,0,,,
A2498,2498,УЛ. КАЛО,,42.60207748413086,23.174253463745117,0,,,
A2503,2503,УЛ. ХАН ТЕРВЕЛ КВ. МАКСИМ ГОРКИ,,42.77001953125,23.190170288085938,0,,,
A0961,0961,КМЕТСТВО ЛОЗЕН,,42.60173416137695,23.486949920654297,0,,,
A0196,0196,БЛ. 35 Ж.К. ЗАХАРНА ФАБРИКА,,42.71711349487305,23.28751564025879,0,,,
A1241,1241,ПЛ. ВАСИЛ ЛЕВСКИ,,42.6981315612793,23.334976196289062,0,,,
A0383,0383,БУЛ. ХРИСТО БОТЕВ,,42.70016098022461,23.31641387939453,0,,,
A0991,0991,КУЛИНАРЕН К-Т ПЕЙФИЛ,,42.639129638671875,23.397817611694336,0,,,
TB2463,2463,Ж.К. МЛАДОСТ-1,,42.650970458984375,23.367786407470703,0,,,
TB6107,6107,НДК,,42.68595886230469,23.321048736572266,0,,,
A1003,1003,ЛЕТИЩЕ ДОБРОСЛАВЦИ - ПО ЖЕЛАНИЕ,,42.818321228027344,23.31370735168457,0,,,
TM2112,2112,УЛ. ПИРОТСКА,,42.70048904418945,23.316129684448242,0,,,
A1358,1358,КАРИЕРНИ МАТЕРИАЛИ АД,,42.75275421142578,23.4210205078125,0,,,
A6506,6506,МЕТРОСТАНЦИЯ К. ВЕЛИЧКОВ,,42.702247619628906,23.29770278930664,0,,,
A2653,2653,Ж.К. СОФИЯ ПАРК,,42.61973190307617,23.369157791137695,0,,,
A6685,6685,УЛ. ВАСИЛ ЛЕВСКИ - ВРЕМЕННА,,42.79540252685547,23.335735321044922,0,,,
TM0928,0928,ЧИТАЛИЩЕ Д-Р П. БЕРОН,,42.6761589050293,23.309030532836914,0,,,
A0345,0345,БУЛ. НИКОЛА ПЕТКОВ,,42.668724060058594,23.254114151000977,0,,,
A1316,1316,ПЛ. СТОЧНА ГАРА,,42.704280853271484,23.334489822387695,0,,,
A1813,1813,УЛ. 640,,42.68109130859375,23.244781494140625,0,,,
A2790,2790,МЕТРОСТАНЦИЯ СОФИЙСКА СВЕТА ГОРА,,42.676513671875,23.41049575805664,0,,,
A0277,0277,БУЛ. АЛ. ПУШКИН,,42.66032791137695,23.26456642150879,0,,,
TB2136,2136,БУЛ. ГОЦЕ ДЕЛЧЕВ,,42.67543029785156,23.287967681884766,0,,,
TB2596,2596,ПЕТА ГРАДСКА БОЛНИЦА,,42.71221160888672,23.312660217285156,0,,,
A0190,0190,ТЕХНО ПАРК СОФИЯ,,42.64891052246094,23.409170150756836,0,,,
TB1306,1306,ПЛ. РУЧЕЙ,,42.67652893066406,23.297157287597656,0,,,
A0030,0030,36-ТИ ПОЩЕНСКИ КЛОН,,42.720741271972656,23.252904891967773,0,,,
A2095,2095,УЛ. ОРФЕЙ,,42.76071548461914,23.42284393310547,0,,,
A1404,1404,11-ТИ ПОЩЕНСКИ КЛОН,,42.68449783325195,23.358360290527344,0,,,
A6183,6183,СУ СВ. КЛ. ОХРИДСКИ,,42.695556640625,23.335168838500977,0,,,
A1899,1899,УЛ. ГЕН. НИКОЛА ЖЕКОВ,,42.73353958129883,23.308837890625,0,,,
A2101,2101,УЛ. ОХРИД,,42.70986557006836,23.313928604125977,0,,,
A2202,2202,УЛ. ЦАРИБРОДСКА,,42.71477508544922,23.140642166137695,0,,,
A2223,2223,УЛ. УОШБЪРН,,42.707096099853516,23.345014572143555,0,,,
A1705,1705,МАГАЗИН ВИТОША,,42.71314239501953,23.24724578857422,0,,,
OM_N16,,,,42.69065856933594,23.336341857910156,3,OMSt,,-2
A1135,1135,НДК,,42.68584060668945,23.31772232055664,0,,,
A6707,6707,МЕТРОСТАНЦИЯ БЕЛИ ДУНАВ,,42.734886169433594,23.293392181396484,0,,,
TM1872,1872,Ул. Витиня,,42.70050811767578,23.37217140197754,0,,,
TB0128,0128,БЛ. 108 Ж.К. ДРУЖБА-1,,42.66823959350586,23.39242172241211,0,,,
TB0124,0124,БЛ. 22 Ж.К. ДИАНАБАД БЛ. 1,,42.6581916809082,23.342571258544922,0,,,
TB1976,1976,УЛ. КАМЕН АНДРЕЕВ,,42.69512939453125,23.30230140686035,0,,,
TB0176,0176,БЛ. 255 Ж.К. ДРУЖБА-2,,42.65272903442383,23.40390968322754,0,,,
TB0682,0682,Ж.К. ОВЧА КУПЕЛ-2,,42.68266296386719,23.24360466003418,0,,,
TB0603,0603,Ж.К. ДИАНАБАД,,42.657371520996094,23.33771324157715,0,,,
TB0430,0430,В.З. ГЕРМАН,,42.62492370605469,23.422325134277344,0,,,
TB1245,1245,ПАРАКЛИС СВ.ИВ.РИЛСКИ,,42.661766052246094,23.273706436157227,0,,,
TB0175,0175,БЛ. 25 Ж.К. ОВЧА КУПЕЛ-2,,42.688655853271484,23.241609573364258,0,,,
TB0588,0588,Ж.К. БЪКСТОН,,42.6584587097168,23.272809982299805,0,,,
TB0123,0123,БЛ. 22 Ж.К. ДИАНАБАД,,42.65824890136719,23.341995239257812,0,,,
TB1469,1469,БЛ. 4  Ж.К. СУХАТА РЕКА,,42.69906997680664,23.36528205871582,0,,,
TB1327,1327,ЦЕНТРАЛНА ГАРА,,42.71110916137695,23.320743560791016,0,,,
TB6178,6178,УЛ. КАП. Д. СПИСАРЕВСКИ,,42.67280197143555,23.38808822631836,0,,,
TB0251,0251,БЛ. 706 Ж.К. ЛЮЛИН-7,,42.71346664428711,23.26464080810547,0,,,
TB0651,0651,Ж.К. ЛЮЛИН-3,,42.721778869628906,23.24138069152832,0,,,
TB0254,0254,БЛ. 715 Ж.К. ЛЮЛИН-7,,42.714744567871094,23.2586612701416,0,,,
A1129,1129,НАЧАЛО С. КЪТИНА - ПО ЖЕЛАНИЕ,,42.84156036376953,23.32340431213379,0,,,
A2162,2162,Ж.К. КРАСНА ПОЛЯНА,,42.69733428955078,23.27720832824707,0,,,
TB0160,0160,БЛ. 206 Ж.К. ДРУЖБА-2,,42.65559005737305,23.398983001708984,0,,,
M314,314,КРАСНО СЕЛО,,42.67877960205078,23.284067153930664,0,,,
A1022,1022,МАХАЛА ДЖЮЛНИЦИ,,42.76727294921875,23.243743896484375,0,,,
TB1313,1313,ПЛ. СТОЧНА ГАРА,,42.70433044433594,23.33315658569336,0,,,
A1865,1865,УЛ. ВЕЛЧО АТАНАСОВ,,42.69641876220703,23.360061645507812,0,,,
A2406,2406,ШКОЛА БЧК,,42.59486770629883,23.50776481628418,0,,,
A2661,2661,МЕТРОСТАНЦИЯ ХАН КУБРАТ,,42.72230529785156,23.306987762451172,0,,,
TB0625,0625,Ж.К. ИВАН ВАЗОВ,,42.676734924316406,23.30478286743164,0,,,
TM0222,0222,БЛ. 458 Ж.К. НАДЕЖДА-4,,42.7375373840332,23.298450469970703,0,,,
TM1987,1987,УЛ. КИРИЛ БЛАГОЕВ,,42.75154113769531,23.320621490478516,0,,,
TM1709,1709,ТЪРГОВСКИ К-С ОБЕЛЯ,,42.742401123046875,23.280784606933594,0,,,
A2768,2768,УЛ. ЦВЕТНА ГРАДИНА,,42.633277893066406,23.408153533935547,0,,,
M7,7,СЕРДИКА,,42.69779586791992,23.32135772705078,0,,,
A1492,1492,РУМЪНСКО ПОСОЛСТВО,,42.68547821044922,23.349946975708008,0,,,
TM2576,2576,БУЛ. ЛОМСКО ШОСЕ,,42.73478317260742,23.291749954223633,0,,,
A1326,1326,УЛ. КЛОКОТНИЦА,,42.708518981933594,23.318069458007812,0,,,
TM0274,0274,БУЛ. АКАД. ИВ. ГЕШОВ,,42.68655014038086,23.29964828491211,0,,,
A0936,0936,КМЕТСТВО ЖЕЛЕЗНИЦА,,42.533851623535156,23.36635971069336,0,,,
A0989,0989,КУЛИНАРЕН К-Т ПЕЙФИЛ,,42.63865280151367,23.396915435791016,0,,,
A1112,1112,СТЦ ИНТЕРПРЕД,,42.6693000793457,23.3525390625,0,,,
A0543,0543,РИТЕКС АД,,42.66531753540039,23.462112426757812,0,,,
A0695,0695,ГАРА ЧЕПИНЦИ,,42.76559829711914,23.434524536132812,0,,,
TB0021,0021,26-ТИ ДКЦ,,42.725101470947266,23.255577087402344,0,,,
TM0060,0060,МЕТРОСТАНЦИЯ ОБЕЛЯ,,42.7421760559082,23.277626037597656,0,,,
A6787,6787,92 ОДЗ - ВРЕМЕННА,,42.70651626586914,23.386154174804688,0,,,
A2134,2134,УЛ. ПРОФ. Д. АТАНАСОВ,,42.67483139038086,23.290287017822266,0,,,
A0116,0116,БИОМЕТ ЕООД - ПО ЖЕЛАНИЕ,,42.801231384277344,23.264209747314453,0,,,
TM0680,0680,Ж.К. ОБЕЛЯ-2,,42.74833679199219,23.27712631225586,0,,,
A0023,0023,ОНКОЛОГИЧЕН ДИСПАНСЕР,,42.65459442138672,23.369077682495117,0,,,
A1819,1819,УЛ. АЛЕКСАНДЪР ЖЕНДОВ,,42.6777458190918,23.355825424194336,0,,,
A6785,6785,БУЛ. ВЛАДИМИР ВАЗОВ - ВРЕМЕННА,,42.70927429199219,23.38799285888672,0,,,
A0956,0956,ОБЩИНА НОВИ ИСКЪР - ПО ЖЕЛАНИЕ,,42.80311584472656,23.34419059753418,0,,,
A1739,1739,ПГ ПО ДИЗАЙН ЕЛИСАВЕТА ВАЗОВА,,42.680824279785156,23.30653190612793,0,,,
A2186,2186,УЛ. СТАРА ПЛАНИНА,,42.85095977783203,23.266916275024414,0,,,
A6784,6784,БУЛ. ВЛАДИМИР ВАЗОВ - ВРЕМЕННА,,42.70939254760742,23.38814353942871,0,,,
A1002,1002,ЛЕТИЩЕ ДОБРОСЛАВЦИ,,42.813228607177734,23.279314041137695,0,,,
A6786,6786,92 ОДЗ - ВРЕМЕННА,,42.706581115722656,23.386308670043945,0,,,
TB2740,2740,МЕТРОСТАНЦИЯ ДРУЖБА,,42.657100677490234,23.39503288269043,0,,,
TM2253,2253,УЛ. ЦАРЕВЕЦ,,42.72982406616211,23.291866302490234,0,,,
A0384,0384,БУЛ. ХРИСТО БОТЕВ,,42.70026779174805,23.315673828125,0,,,
M203,203,НАДЕЖДА,,42.7280158996582,23.300926208496094,0,,,
A0500,0500,ГОРУБЛЯНСКО ХАНЧЕ,,42.638282775878906,23.412450790405273,0,,,
TM2585,2585,УЛ. МЮНХЕН,,42.660037994384766,23.410356521606445,0,,,
A0643,0643,Ж.К. КРЕМИКОВЦИ,,42.78172302246094,23.50394630432129,0,,,
A2123,2123,УЛ. ПОП ГРУЙО,,42.70707702636719,23.380191802978516,0,,,
A2369,2369,ДОМ НА КУЛТУРАТА ИСКЪР,,42.664649963378906,23.398969650268555,0,,,
TM0679,0679,Ж.К. ОБЕЛЯ-2,,42.748435974121094,23.276554107666016,0,,,
A7007,7007,Бул.Шипченски проход,,42.67884063720703,23.360950469970703,0,,,
A6703,6703,Ул. Папрат - временна,,42.6294059753418,23.312801361083984,0,,,
TB6697,6697,ПК Спартак-временна,,42.67498779296875,23.314271926879883,0,,,
A2720,2720,ВЗ. ЛЮЛИН,,42.652366638183594,23.19215965270996,0,,,
A6629,6629,УЛ. УРАЛ,,42.677242279052734,23.24079132080078,0,,,
TB1798,1798,КУЛТУРЕН ЦЕНТЪР ЛЮЛИН,,42.718536376953125,23.24649429321289,0,,,
TB1164,1164,БЛ. 21 Ж.К. ЛЮЛИН-1,,42.728370666503906,23.2495174407959,0,,,
TB2782,2782,УЛ. МОГИЛАТА,,42.656734466552734,23.32694435119629,0,,,
TB0315,0315,БУЛ. Д-Р Г. М. ДИМИТРОВ,,42.65889358520508,23.34497833251953,0,,,
TB0423,0423,КВ. МАЛИНОВА ДОЛИНА - ПО ЖЕЛАНИЕ,,42.6379508972168,23.35332489013672,0,,,
TB1264,1264,ПЛ. АЛ.НЕВСКИ,,42.69652557373047,23.330223083496094,0,,,
TB1012,1012,Ж.К. ДЪРВЕНИЦА,,42.65036392211914,23.35788345336914,0,,,
TB0127,0127,БЛ. 10 Ж.К. ЛЕВСКИ-Г,,42.71308517456055,23.37980079650879,0,,,
TB1257,1257,ПЛОЩАД  НА АВИАЦИЯТА,,42.6683349609375,23.36723518371582,0,,,
A0933,0933,КМЕТСТВО БАЛША,,42.84861755371094,23.269332885742188,0,,,
TB0197,0197,БЛ. 350 Ж.К. ЛЮЛИН-3,,42.725868225097656,23.24459457397461,0,,,
A2346,2346,ЦЕНТЪР КВ.ФИЛИПОВЦИ,,42.71971893310547,23.22119140625,0,,,
TB0178,0178,БЛ. 255 Ж.К. ДРУЖБА-2,,42.651859283447266,23.40481185913086,0,,,
TM1410,1410,28-МИ ПОЩЕНСКИ КЛОН,,42.663909912109375,23.410961151123047,0,,,
TB0610,0610,Ж.К. ЛЮЛИН-3 - УХО,,42.72172546386719,23.240510940551758,0,,,
TB6004,6004,УЛ. ДИМИТЪР ПЕТКОВ,,42.70709228515625,23.302490234375,0,,,
TB1615,1615,СТАДИОН Г. АСПАРУХОВ,,42.7076301574707,23.364429473876953,0,,,
TB0652,0652,Ж.К. ЛЮЛИН-3,,42.720523834228516,23.242568969726562,0,,,
TB2424,2424,Ж.К. ДРУЖБА -1,,42.654354095458984,23.411518096923828,0,,,
A0732,0732,ЗАСЛОН СИНАНИЦА,,42.55836486816406,23.449987411499023,0,,,
A6404,6404,МЛАДЕЖКИ ТЕАТЪР,,42.69776916503906,23.32587432861328,0,,,
A0532,0532,ДЕТСКИ ДОМ КИНОЦЕНТЪР,,42.642539978027344,23.28916358947754,0,,,
A2732,2732,ПАЗАР МАЛАШЕВЦИ,,42.71855545043945,23.35915756225586,0,,,
A1831,1831,УЛ. БАБА ТОНКА - ПО ЖЕЛАНИЕ,,42.81550598144531,23.352338790893555,0,,,
A0899,0899,КВ. СИМЕОНОВО,,42.6123161315918,23.33892822265625,0,,,
A1518,1518,СЕЛО ГОЛЯНОВЦИ,,42.82868194580078,23.239368438720703,0,,,
A0326,0326,БУЛ. К. ВЕЛИЧКОВ,,42.7005615234375,23.29669761657715,0,,,
A6028,6028,УЛ. ГЕН. ГУРКО,,42.68933868408203,23.33243179321289,0,,,
M23,23,ЛЕТИЩЕ СОФИЯ,,42.68806076049805,23.416126251220703,0,,,
TB1985,1985,УЛ. КАП. Д. СПИСАРЕВСКИ,,42.66827392578125,23.38509178161621,0,,,
A1862,1862,УЛ. ВАСИЛ КЪНЧЕВ,,42.70500564575195,23.357606887817383,0,,,
A6637,6637,ВАКЛИНОВИ КОШАРИ - ПО ЖЕЛАНИЕ,,42.51698684692383,23.347309112548828,0,,,
TB2278,2278,61-ВО ОУ,,42.73746871948242,23.290294647216797,0,,,
A2158,2158,УЛ. РИЛСКА ОБИТЕЛ,,42.70153045654297,23.378915786743164,0,,,
TM1058,1058,МЕТРОСТАНЦИЯ ОПЪЛЧЕНСКА,,42.69966506958008,23.312610626220703,0,,,
A0017,0017,20-ТИ ДКЦ,,42.67097854614258,23.282360076904297,0,,,
A0488,0488,ПРОМИШЛЕНА ЗОНА,,42.657737731933594,23.425901412963867,0,,,
TB0370,0370,БУЛ. ПРОФ.ЦВ. ЛАЗАРОВ,,42.673744201660156,23.3825740814209,0,,,
TB1608,1608,СК НА НСА - ПО ЖЕЛАНИЕ,,42.644065856933594,23.35343360900879,0,,,
TB6718,6718,ДАНОН СЕРДИКА АД,,42.69415283203125,23.298385620117188,0,,,
A1971,1971,УЛ. ЙОСИФ ЩРОСМАЙЕР,,42.71179962158203,23.300151824951172,0,,,
A0284,0284,БУЛ. АЛ. СТАМБОЛИЙСКИ,,42.699161529541016,23.310041427612305,0,,,
A2137,2137,УЛ. ПРОБУДА,,42.73801040649414,23.3256778717041,0,,,
A6428,6428,БУЛ. ПЕЙО ЯВОРОВ,,42.68098449707031,23.34996795654297,0,,,
A1364,1364,УЛ. ЦАР ИВАН АСЕН ІІ,,42.57867431640625,23.415515899658203,0,,,
TM0567,0567,БАЛКАНКАР АД,,42.68553161621094,23.274375915527344,0,,,
TM2826,2826,БУЛ. ВИТОША,,42.69496536254883,23.320096969604492,0,,,
A1616,1616,НАЧАЛО С. ДОБРОСЛАВЦИ,,42.818443298339844,23.280683517456055,0,,,
A2509,2509,ХОТЕЛ МАКСИ,,42.64295196533203,23.336620330810547,0,,,
TM0797,0797,КАТОЛИЧЕСКИ ГРОБИЩЕН ПАРК,,42.71611404418945,23.340124130249023,0,,,
A0347,0347,БУЛ. НИКОЛА ПЕТКОВ,,42.66964340209961,23.25440216064453,0,,,
A6529,6529,УЛ.БЕЛИ БРОД - ВРЕМЕННА,,42.69512939453125,23.220420837402344,0,,,
OM_N17,,,,42.69050598144531,23.336511611938477,3,OMSt,,-2
A6456,6456,УЛ. 6-ТИ СЕПТЕМВРИ,,42.69451904296875,23.33079719543457,0,,,
A2425,2425,БОЛНИЦАТА КВ. ДРАГАЛЕВЦИ,,42.613304138183594,23.314504623413086,0,,,
A1228,1228,КВ. ФАКУЛТЕТА,,42.69824981689453,23.27228355407715,0,,,
A1545,1545,СЕЛО КЪТИНА,,42.8452033996582,23.319114685058594,0,,,
A0471,0471,ГАРА ПОДУЯНЕ,,42.69709014892578,23.35357093811035,0,,,
TM0035,0035,КВ. ГАРА ИСКЪР,,42.6625862121582,23.4148006439209,0,,,
M4,4,ВАРДАР,,42.705875396728516,23.284894943237305,0,,,
A0757,0757,ИНЖСТРОЙ СОФИЯ АД,,42.718223571777344,23.291656494140625,0,,,
A2088,2088,УЛ. ОРЕХОВА ГОРА,,42.669010162353516,23.29791259765625,0,,,
A1703,1703,МАГАЗИН ВИТОША,,42.713321685791016,23.248737335205078,0,,,
A2510,2510,ПО ЖЕЛАНИЕ,,42.68807601928711,23.451765060424805,0,,,
A2127,2127,УЛ. ПОП ГРУЙО,,42.7071418762207,23.379220962524414,0,,,
A6500,6500,СУ 130 СТ. КАРАДЖА,,42.70379638671875,23.3770809173584,0,,,
A1509,1509,СЕЛИМИЦА,,42.6198844909668,23.189044952392578,0,,,
A1814,1814,УЛ. 640,,42.68031311035156,23.246044158935547,0,,,
A1869,1869,УЛ. ВИТИНЯ,,42.705482482910156,23.3696346282959,0,,,
A2203,2203,УЛ. ТЕМЕНУГА - ПО ЖЕЛАНИЕ,,42.82687759399414,23.35342788696289,0,,,
A2811,2811,УЛ. САВА ФИЛАРЕТОВ,,42.72969436645508,23.299238204956055,0,,,
A1188,1188,ОКОЛОВРЪСТЕН ПЪТ,,42.76259231567383,23.275144577026367,0,,,
TB1754,1754,УЛ. ВИТИНЯ,,42.70875930786133,23.369178771972656,0,,,
A1878,1878,УЛ. ВИХРЕН,,42.66473388671875,23.274930953979492,0,,,
TM0010,0010,14-ТИ ДКЦ,,42.67972183227539,23.311365127563477,0,,,
A2504,2504,УЛ. ХАН КРУМ КВ. МАКСИМ ГОРКИ,,42.773319244384766,23.184974670410156,0,,,
A6248,6248,БЛ. 541 Ж.К. ЛЮЛИН 5,,42.712860107421875,23.238969802856445,0,,,
A0507,0507,ГРОБИЩЕН ПАРК НЕГОВАН,,42.766822814941406,23.40880584716797,0,,,
TB0681,0681,Ж.К. ОБЕЛЯ-2,,42.74633026123047,23.28077507019043,0,,,
A1832,1832,УЛ. БАБА ТОНКА - ПО ЖЕЛАНИЕ,,42.81523895263672,23.35211181640625,0,,,
A1205,1205,ОПИТНА СТАНЦИЯ,,42.74143981933594,23.40456771850586,0,,,
TM0320,0320,БУЛ. ДЖАВАХАРЛАЛ НЕРУ,,42.71562194824219,23.2612361907959,0,,,
A2164,2164,УЛ. РОЯК,,42.713375091552734,23.342809677124023,0,,,
A2214,2214,УЛ. ТОДОРИНИ КУКЛИ,,42.70217514038086,23.35862159729004,0,,,
A1715,1715,ОБЩИНА ЛЮЛИН,,42.71506881713867,23.250455856323242,0,,,
A0818,0818,КВ. ВЕРДИКАЛ,,42.71986389160156,23.130935668945312,0,,,
A1395,1395,БЪЛГАРСКА ТЕЛЕГРАФНА АГЕНЦИЯ,,42.68594741821289,23.344261169433594,0,,,
A1005,1005,ЛЕТИЩЕ ДОБРОСЛАВЦИ,,42.81336212158203,23.279438018798828,0,,,
A1467,1467,РЕЗИДЕНЦИЯ ВРАНА,,42.63493347167969,23.436141967773438,0,,,
TM1979,1979,УЛ. КАП. Д. СПИСАРЕВСКИ,,42.672672271728516,23.38789176940918,0,,,
A6602,6602,БУЛ. ВАРНА,,42.712364196777344,23.1514892578125,0,,,
A0093,0093,31-ВО СУЧЕМ,,42.6866340637207,23.35279655456543,0,,,
A2652,2652,Ж.К. СОФИЯ ПАРК,,42.619537353515625,23.369035720825195,0,,,
A0468,0468,ГАРА ПОДУЯНЕ,,42.69606018066406,23.354768753051758,0,,,
TB0653,0653,Ж.К. ЛЮЛИН-3,,42.720947265625,23.24207878112793,0,,,
A1233,1233,УЛ. КРАЛИ МАРКО,,42.781700134277344,23.499919891357422,0,,,
A2313,2313,ХЛЕБОЗАВОДА,,42.660343170166016,23.320716857910156,0,,,
A2075,2075,УЛ. ОДРИН,,42.699440002441406,23.303890228271484,0,,,
TB2779,2779,Аджибадем сити клиник,,42.665069580078125,23.326528549194336,0,,,
A2259,2259,УЛ. ЧЕРКОВНА,,42.6936149597168,23.3510684967041,0,,,
A1095,1095,МОСТА НА ВЛАДАЙСКА РЕКА,,42.71640396118164,23.352346420288086,0,,,
A1534,1534,СЕЛО ЖИТЕН,,42.818599700927734,23.251209259033203,0,,,
A2698,2698,ЗАСЛОН БАЙ КРЪСТЬО - ПО ЖЕЛАНИЕ,,42.604549407958984,23.300718307495117,0,,,
A0452,0452,ГАРА ЗАХАРНА ФАБРИКА,,42.712459564208984,23.291343688964844,0,,,
TB1824,1824,УЛ. АЛЕКСАНДЪР ЖЕНДОВ,,42.6806640625,23.357158660888672,0,,,
A1650,1650,НАЧАЛО С. ГОЛЯНОВЦИ,,42.82598876953125,23.242395401000977,0,,,
A1900,1900,УЛ. ГЕН. НИКОЛА ЖЕКОВ,,42.734073638916016,23.30902671813965,0,,,
A1943,1943,УЛ. СТАРА ПЛАНИНА,,42.71168899536133,23.14450454711914,0,,,
A6243,6243,БУЛ. БЪЛГАРИЯ,,42.66572952270508,23.28676414489746,0,,,
A0453,0453,ГАРА ИВАНЯНЕ,,42.71704864501953,23.17008399963379,0,,,
A6132,6132,УМБАЛСМ ПИРОГОВ,,42.69001388549805,23.30590057373047,0,,,
TM0910,0910,МЕТРОСТАНЦИЯ ВИТОША,,42.66059875488281,23.31708526611328,0,,,
A1353,1353,ПО ЖЕЛАНИЕ,,42.707576751708984,23.497920989990234,0,,,
A0969,0969,ПАЗАРА МЛАДОСТ 1,,42.65279769897461,23.373842239379883,0,,,
A2190,2190,УЛ. СТОЯН МИХАЙЛОВСКИ,,42.672428131103516,23.335548400878906,0,,,
TB0517,0517,ДЕПО ИСКЪР,,42.65448760986328,23.4111328125,0,,,
A0807,0807,КВ. БОЯНА,,42.649410247802734,23.26448631286621,0,,,
M20,20,ДРУЖБА,,42.65874481201172,23.39455795288086,0,,,
A1521,1521,СЕЛО ГОРНИ БОГРОВ,,42.7181510925293,23.529285430908203,0,,,
TB6411,6411,БУЛ. ПРАГА,,42.688743591308594,23.3131103515625,0,,,
A0858,0858,КВ. КУМАРИЦА,,42.80089569091797,23.34037971496582,0,,,
A1552,1552,КМЕТСТВО МЪРЧАЕВО,,42.60007858276367,23.170249938964844,0,,,
A1226,1226,29-ТИ ДКЦ,,42.664306640625,23.297697067260742,0,,,
A2249,2249,УЛ. ЦАР СИМЕОН,,42.70561981201172,23.298803329467773,0,,,
A1826,1826,УЛ. АНГЕЛ ВОЙВОДА,,42.70661163330078,23.358007431030273,0,,,
A1214,1214,РАЗКЛОНА ЗА ВОЛУЯК,,42.775108337402344,23.250499725341797,0,,,
TB2080,2080,УЛ. ОПЪЛЧЕНСКА,,42.713417053222656,23.315715789794922,0,,,
TM2098,2098,УЛ. ОСВОБОЖДЕНИЕ,,42.694515228271484,23.292278289794922,0,,,
TB0325,0325,БУЛ. К. ВЕЛИЧКОВ,,42.706993103027344,23.299978256225586,0,,,
A1193,1193,УМБАЛ СВ. АННА,,42.662113189697266,23.376373291015625,0,,,
A2729,2729,РАЗКЛОНА ЗА КВ. ВИДНИТЕ,,42.656925201416016,23.45652198791504,0,,,
A0579,0579,СОФИЯ ТЕХ ПАРК,,42.66554641723633,23.371841430664062,0,,,
A6512,6512,БУЛ. АКАД. ИВ. ГЕШОВ,,42.67908477783203,23.301807403564453,0,,,
M208,208,СЕРДИКА 2,,42.69874572753906,23.322078704833984,0,,,
A0037,0037,53-ТО ОУ,,42.67683792114258,23.234962463378906,0,,,
A6166,6166,СЕЛО ЧЕПИНЦИ,,42.7584228515625,23.426179885864258,0,,,
A6429,6429,БИСТРИШКО ШОСЕ,,42.6165657043457,23.36463737487793,0,,,
TM1727,1727,ТЕАТЪР СОФИЯ,,42.69622802734375,23.345945358276367,0,,,
A1306,1306,ПЛ. РУЧЕЙ,,42.67652893066406,23.297157287597656,0,,,
A0373,0373,БУЛ. ХРИСТОФОР КОЛУМБ,,42.660884857177734,23.39143943786621,0,,,
A6565,6565,УЛ. БЯЛАТА ЧЕШМА - ПО ЖЕЛАНИЕ,,42.645965576171875,23.24472427368164,0,,,
A2491,2491,МЕТРОСТАНЦИЯ БИЗНЕС ПАРК,,42.62816619873047,23.37347412109375,0,,,
A2814,2814,УЛ. ВАСИЛ ЛЕВСКИ,,42.746238708496094,23.606143951416016,0,,,
A2238,2238,УЛ. ХРИСТО БОТЕВ,,42.760868072509766,23.20183563232422,0,,,
A2097,2097,УЛ. ОРЯХОВО,,42.71031951904297,23.292802810668945,0,,,
A6320,6320,УЛ. Н. КОПЕРНИК,,42.68291473388672,23.364334106445312,0,,,
TB2124,2124,УЛ. ПОП ГРУЙО,,42.710411071777344,23.37950325012207,0,,,
A1396,1396,ВИСШЕ УЧИЛИЩЕ ПО ТЕЛЕКОМУНИКАЦИИ И ПОЩИ,,42.65575408935547,23.349388122558594,0,,,
A0932,0932,КМЕТСТВО БАЛША,,42.848575592041016,23.269521713256836,0,,,
A0982,0982,КРАЯ НА КВ. МИХАЙЛОВО,,42.6851692199707,23.1197509765625,0,,,
A0908,0908,ПЪТЕН ВЪЗЕЛ ФИЛИПОВЦИ,,42.7183837890625,23.236021041870117,0,,,
A1858,1858,УЛ. БЯЛО МОРЕ,,42.69904708862305,23.33916664123535,0,,,
TM1594,1594,СОФИЯ МЕД АД,,42.65966033935547,23.415061950683594,0,,,
A0169,0169,МЕТРОСТАНЦИЯ АЛ. МАЛИНОВ,,42.6461296081543,23.37555503845215,0,,,
A0844,0844,КВ. ИЗГРЕВ,,42.71538543701172,23.172578811645508,0,,,
TM1737,1737,ПГД ЕЛИСАВЕТА ВАЗОВА,,42.68092346191406,23.307327270507812,0,,,
A1220,1220,УЛ. ЗОРНИЦА,,42.76385498046875,23.24390983581543,0,,,
A1278,1278,ПЛ. ЛЪВОВ МОСТ,,42.704498291015625,23.324987411499023,0,,,
A1015,1015,Ж.К. ДЪРВЕНИЦА,,42.65104293823242,23.358919143676758,0,,,
TM0596,0596,Ж.К. ГЕО МИЛЕВ,,42.67714309692383,23.369770050048828,0,,,
TM0379,0379,ЖЕНСКИ ПАЗАР,,42.700382232666016,23.31778907775879,0,,,
A1223,1223,УЛ. НАДЕЖДА,,42.75415802001953,23.43475341796875,0,,,
A2331,2331,ЦАРЕВА МАХАЛА,,42.524497985839844,23.36017417907715,0,,,
A6245,6245,УЛ. РЕЗБАРСКА - ВРЕМЕННА,,42.70759963989258,23.341829299926758,0,,,
A0307,0307,БУЛ. ВЪЗКРЕСЕНИЕ,,42.69446563720703,23.292015075683594,0,,,
A6920,6920,УЛ. ТИРАНА,,42.66035842895508,23.399850845336914,0,,,
TB0355,0355,БУЛ. ПЕНЧО СЛАВЕЙКОВ,,42.687381744384766,23.31080436706543,0,,,
TB0647,0647,ПК СПАРТАК,,42.67554473876953,23.31501007080078,0,,,
A2187,2187,УЛ. СТАРА ПЛАНИНА,,42.85036087036133,23.267255783081055,0,,,
TM0386,0386,УАСГ,,42.68568420410156,23.330678939819336,0,,,
A0866,0866,КВ. МАНАСТИРСКИ ЛИВАДИ,,42.656795501708984,23.284433364868164,0,,,
TB0443,0443,УМБАЛ СВ. ЕКАТЕРИНА,,42.68604278564453,23.311748504638672,0,,,
A0798,0798,КАУЧУКОВ ЗАВОД ЗЕБРА - ПО ЖЕЛАНИЕ,,42.82084655761719,23.365440368652344,0,,,
A1202,1202,ОПИТНА СТАНЦИЯ,,42.62192916870117,23.451120376586914,0,,,
TB6604,6604,МС МУСАГЕНИЦА,,42.65802001953125,23.365922927856445,0,,,
TM1932,1932,УЛ. ДОБРОТИЧ,,42.693023681640625,23.281646728515625,0,,,
A0527,0527,ДЕТСКИ ДОМ,,42.674007415771484,23.43087387084961,0,,,
A1075,1075,ДАНОН СЕРДИКА АД,,42.693546295166016,23.299409866333008,0,,,
A1379,1379,ПО ЖЕЛАНИЕ,,42.71158981323242,23.19198989868164,0,,,
A1998,1998,УЛ. КНЯЗ БОРИС I,,42.7047233581543,23.322837829589844,0,,,
A2460,2460,ГАРА КУРИЛО,,42.81855010986328,23.356334686279297,0,,,
A2276,2276,144-ТО СОУ,,42.64476013183594,23.37871742248535,0,,,
TM1933,1933,УЛ. ДОБРОТИЧ,,42.6933479309082,23.282203674316406,0,,,
A1806,1806,УЛ. 6-ТИ СЕПТЕМВРИ,,42.6865348815918,23.324262619018555,0,,,
A2226,2226,УЛ. ХАЙДУТ СИДЕР,,42.70891571044922,23.286832809448242,0,,,
TB1134,1134,НДК,,42.68559646606445,23.317272186279297,0,,,
A0043,0043,8-МИ ДКЦ,,42.72826385498047,23.291210174560547,0,,,
A0094,0094,НЦ ПО РЕХАБИЛИТАЦИЯ,,42.676292419433594,23.268312454223633,0,,,
A0461,0461,ГАРА ОБЕЛЯ,,42.73887252807617,23.264400482177734,0,,,
TM0582,0582,КВ. МАНАСТИРСКИ ЛИВАДИ - ЗАПАД,,42.6615104675293,23.28427505493164,0,,,
A1207,1207,ОПИТНА СТАНЦИЯ,,42.622596740722656,23.450435638427734,0,,,
A1309,1309,ПЛ. СРЕД СЕЛО,,42.6612663269043,23.24374771118164,0,,,
TM0013,0013,140-ТО СОУ,,42.746158599853516,23.27478790283203,0,,,
A2117,2117,УЛ. ПОДУЕНСКА,,42.700767517089844,23.35148048400879,0,,,
A1633,1633,ХЮНДАЙ БЪЛГАРИЯ,,42.74440002441406,23.318035125732422,0,,,
A1985,1985,УЛ. КАП. Д. СПИСАРЕВСКИ,,42.66827392578125,23.38509178161621,0,,,
TB0646,0646,Ж.К. ЛЕВСКИ Г,,42.71211242675781,23.388059616088867,0,,,
TM1996,1996,ПЛ. ГАРИБАЛДИ,,42.69376754760742,23.322738647460938,0,,,
A6251,6251,БУЛ.ЧЕРНИ ВРЪХ,,42.65680694580078,23.31768798828125,0,,,
A2029,2029,УЛ. ЛИЛЯЧЕ,,42.68651580810547,23.266050338745117,0,,,
A2043,2043,УЛ. МАЛОМИР,,42.65566635131836,23.265546798706055,0,,,
A0925,0925,БАЛКАНКЕРАМИК АД - ПО ЖЕЛАНИЕ,,42.80657196044922,23.347957611083984,0,,,
A1948,1948,УЛ. ЗОГРАФСКИ МАНАСТИР,,42.70669174194336,23.292194366455078,0,,,
A1477,1477,УЛ. ДЕТЕЛИНА,,42.71833801269531,23.2279052734375,0,,,
A2414,2414,ЧИТАЛИЩЕ СВЕТЛИНА,,42.602012634277344,23.475635528564453,0,,,
A6134,6134,Ж.К. ЛАГЕРА,,42.685089111328125,23.296369552612305,0,,,
TM1046,1046,МЕТРОСТАНЦИЯ ВАРДАР,,42.70558547973633,23.284053802490234,0,,,
A0495,0495,ГОРСКО СТОПАНСТВО,,42.77097702026367,23.4393310546875,0,,,
A1342,1342,ПК ДИАНА,,42.66624450683594,23.34224510192871,0,,,
A2140,2140,УЛ. ПРОМИШЛЕНА,,42.689857482910156,23.250791549682617,0,,,
M312,312,БЪЛГАРИЯ,,42.67939376831055,23.300979614257812,0,,,
A1301,1301,ПЛ. РУЧЕЙ,,42.6769905090332,23.297924041748047,0,,,
A1938,1938,УЛ. ДРАВА,,42.71781921386719,23.217893600463867,0,,,
A6686,6686,УЛ. ВАСИЛ ЛЕВСКИ - ВРЕМЕННА,,42.79551315307617,23.335508346557617,0,,,
A6139,6139,УЛ.ОМАЯ,,42.67005157470703,23.247060775756836,0,,,
TB1894,1894,УЛ. ГЕН. НИКОЛА ГЕНЕВ,,42.71623611450195,23.26831817626953,0,,,
TB1875,1875,УЛ. ВИХРЕН,,42.66530990600586,23.275306701660156,0,,,
A1563,1563,СЕЛО ЧЕПИНЦИ,,42.75746154785156,23.425621032714844,0,,,
A1652,1652,ПРОМИШЛЕНА ЗОНА ГОРНИ ЛОЗЕН,,42.614540100097656,23.460357666015625,0,,,
TB2380,2380,ЮЖЕН ПАРК,,42.674598693847656,23.309349060058594,0,,,
A0776,0776,УЛ. КАЛОЯНОВО,,42.670352935791016,23.25786781311035,0,,,
A0930,0930,КИНОЦЕНТЪР БОЯНА,,42.641693115234375,23.293046951293945,0,,,
TB0406,0406,БУЛ. ПАНЧО ВЛАДИГЕРОВ,,42.72312927246094,23.25921630859375,0,,,
M315,315,ОВЧА КУПЕЛ,,42.68368911743164,23.269960403442383,0,,,
A1967,1967,КВ. КИНОЦЕНТЪР,,42.64870071411133,23.294771194458008,0,,,
A6099,6099,КВ. ГРАДОМАН,,42.68667221069336,23.139795303344727,0,,,
A1465,1465,НИМ,,42.657325744628906,23.27349281311035,0,,,
A1912,1912,УЛ. ГОЦЕ ДЕЛЧЕВ,,42.712554931640625,23.273866653442383,0,,,
A2470,2470,ТОЛУМСКА МАХАЛА - ПО ЖЕЛАНИЕ,,42.598106384277344,23.162233352661133,0,,,
A0467,0467,ГАРА ПОДУЯНЕ,,42.697547912597656,23.354448318481445,0,,,
A1578,1578,ТЮФ,,42.67607498168945,23.401214599609375,0,,,
A6681,6681,УЛ. КРУШАТА - ВРЕМЕННА,,42.79341506958008,23.329437255859375,0,,,
A1268,1268,ПЛ. БИРИМИРЦИ,,42.73777389526367,23.343664169311523,0,,,
A1666,1666,УЛ. ЦАР ИВАН ШИШМАН,,42.57958984375,23.418060302734375,0,,,
TM0476,0476,Гара София север,,42.72684097290039,23.315021514892578,0,,,
A2315,2315,ХЛЕБОЗАВОД БОТУНЕЦ АД,,42.73739242553711,23.510528564453125,0,,,
TB1941,1941,УЛ. ДУНАВ,,42.70773696899414,23.32933807373047,0,,,
A1684,1684,НАЧАЛО КВ. ТРЕБИЧ - ПО ЖЕЛАНИЕ,,42.771697998046875,23.31584930419922,0,,,
A6033,6033,УЛ. ВИТИНЯ,,42.70719909667969,23.369646072387695,0,,,
TB1930,1930,УЛ. ДИМИТЪР ПЕШЕВ,,42.64041519165039,23.413095474243164,0,,,
A1199,1199,УЛ. ВРЪХ МАНЧО,,42.72151184082031,23.280363082885742,0,,,
A2157,2157,УЛ. РЕСЕНСКА ПОЛЯНА,,42.70960998535156,23.345314025878906,0,,,
A6403,6403,МЛАДЕЖКИ ТЕАТЪР,,42.698055267333984,23.327075958251953,0,,,
A0904,0904,КВ. СЛАВОВЦИ - ПО ЖЕЛАНИЕ,,42.79176712036133,23.33453369140625,0,,,
A1539,1539,СЕЛО КОКАЛЯНЕ,,42.57684326171875,23.414506912231445,0,,,
A0282,0282,БУЛ. АЛ. СТАМБОЛИЙСКИ,,42.701820373535156,23.2854061126709,0,,,
TM0851,0851,КВ. КНЯЖЕВО,,42.65858840942383,23.24135398864746,0,,,
TM0353,0353,БУЛ. ПАТРИАРХ ЕВТИМИЙ,,42.68952178955078,23.319164276123047,0,,,
A2283,2283,152-РО ОУ,,42.603248596191406,23.175479888916016,0,,,
A2350,2350,НАЧАЛО С. ЖИТЕН,,42.81128692626953,23.25613021850586,0,,,
A0617,0617,ЛТУ,,42.65313720703125,23.359683990478516,0,,,
TM1165,1165,10-ТИ ДКЦ,,42.701263427734375,23.292001724243164,0,,,
A0070,0070,РЦ ПО ПРОТЕЗИРАНЕ,,42.676300048828125,23.249563217163086,0,,,
A1683,1683,НАЧАЛО КВ. ТРЕБИЧ - ПО ЖЕЛАНИЕ,,42.77134704589844,23.31566619873047,0,,,
A2604,2604,УЛ. ИСКЪР БОЖУРИЩЕ,,42.76771545410156,23.193910598754883,0,,,
A2592,2592,КОКАЛЯНСКО ХАНЧЕ,,42.58228302001953,23.42442512512207,0,,,
A6484,6484,БЛ.207 Ж.К.ОБЕЛЯ 2,,42.74544906616211,23.268999099731445,0,,,
A1419,1419,ПРОСТОР,,42.6955451965332,23.244091033935547,0,,,
A1222,1222,УЛ. НАДЕЖДА,,42.753929138183594,23.434799194335938,0,,,
A0457,0457,ГАРА КУРИЛО - ПО ЖЕЛАНИЕ,,42.81807327270508,23.355907440185547,0,,,
M3,3,ЗАПАДЕН ПАРК,,42.711212158203125,23.2703914642334,0,,,
A1514,1514,КМЕТСТВО ВЛАДАЯ,,42.62852096557617,23.195772171020508,0,,,
A2363,2363,ПЛ. ВИТОША,,42.756019592285156,23.429954528808594,0,,,
A1849,1849,УЛ. БУРЯ,,42.66858673095703,23.24445152282715,0,,,
A6519,6519,УЛ. ТИРАНА,,42.66041946411133,23.39988136291504,0,,,
A6678,6678,УЛ. КАЛИМАНЦИ - ВРЕМЕННА,,42.6875,23.365549087524414,0,,,
A1523,1523,СЕЛО ГОРНИ ЛОЗЕН,,42.60150146484375,23.48297691345215,0,,,
A1958,1958,УЛ. ИЛИЯ БЕШКОВ,,42.662174224853516,23.404712677001953,0,,,
A2224,2224,УЛ. УРАЛ,,42.67734909057617,23.24092674255371,0,,,
A2735,2735,УЛ. 746 - ПО ЖЕЛАНИЕ,,42.69545364379883,23.25478172302246,0,,,
A0738,0738,ЗЕЛЕНЧУКОВА ГРАДИНА,,42.7442741394043,23.409128189086914,0,,,
A0746,0746,СОФАРМА АД,,42.7360725402832,23.317684173583984,0,,,
TB2107,2107,МЕТРОСТАНЦИЯ ХАДЖИ ДИМИТЪР,,42.70342254638672,23.354555130004883,0,,,
A0975,0975,СОФИЯ МЕД АД,,42.659629821777344,23.41510009765625,0,,,
A1749,1749,ТЕЦ ИЗТОК,,42.65098190307617,23.41390037536621,0,,,
TB0866,0866,КВ. МАНАСТИРСКИ ЛИВАДИ,,42.656795501708984,23.284433364868164,0,,,
A1830,1830,УЛ. АТАНАС УЗУНОВ,,42.6907958984375,23.363765716552734,0,,,
A2618,2618,УЛ. ЕДЕЛВАЙС - ПО ЖЕЛАНИЕ,,42.78956604003906,23.30935287475586,0,,,
A2071,2071,УЛ. ОБОРИЩЕ,,42.692657470703125,23.354965209960938,0,,,
A2412,2412,ЦЕНТЪР ДОЛНИ ЛОЗЕН,,42.603633880615234,23.494098663330078,0,,,
A1499,1499,НАЧАЛО С. ВЛАДАЯ - ПО ЖЕЛАНИЕ,,42.634525299072266,23.195650100708008,0,,,
A6018,6018,кв. Бузема-временна,,42.681640625,23.255138397216797,0,,,
TB6233,6233,Ж.К. МОТОПИСТА,,42.669532775878906,23.291725158691406,0,,,
A1546,1546,СЕЛО ЛОКОРСКО,,42.79448699951172,23.4478759765625,0,,,
A1335,1335,ПЛАЖА ПАНЧАРЕВО - ПО ЖЕЛАНИЕ,,42.58792495727539,23.4199275970459,0,,,
TB1034,1034,УМБАЛ АЛЕКСАНДРОВСКА,,42.686275482177734,23.308271408081055,0,,,
TM0847,0847,КВ. ИЛИЯНЦИ,,42.7537727355957,23.32132339477539,0,,,
A1295,1295,ПЛ. РУСКИ ПАМЕТНИК,,42.6927604675293,23.30997657775879,0,,,
A1421,1421,ПТИЦЕФЕРМАТА,,42.72549057006836,23.373716354370117,0,,,
A1531,1531,СЕЛО ЖЕЛЕЗНИЦА,,42.535213470458984,23.36538314819336,0,,,
A0394,0394,БУЛ. ЦАР БОРИС ІІІ,,42.687068939208984,23.30082130432129,0,,,
A1089,1089,МОСТА ДОЛНИ ПАСАРЕЛ,,42.538665771484375,23.49988555908203,0,,,
TM1993,1993,УЛ. КЛОКОТНИЦА,,42.708221435546875,23.318103790283203,0,,,
A6122,6122,УЛ.РОСАРИО,,42.65264129638672,23.353540420532227,0,,,
A6550,6550,УЛ.ИНДИРА ГАНДИ,,42.71048355102539,23.258882522583008,0,,,
A2229,2229,УЛ. ХАЙДУТ СИДЕР,,42.70876693725586,23.28692054748535,0,,,
A6665,6665,УЛ. ОВЧЕ ПОЛЕ - ВРЕМЕННА,,42.69586181640625,23.224580764770508,0,,,
TB0303,0303,МЕТРОСТАНЦИЯ ХАДЖИ ДИМИТЪР,,42.702510833740234,23.352317810058594,0,,,
A2250,2250,УЛ. ЦАР СИМЕОН,,42.70527267456055,23.298641204833984,0,,,
A2780,2780,МЕТРОСТАНЦИЯ ВИТОША,,42.657535552978516,23.316293716430664,0,,,
TB0803,0803,Ж.К. БАНИШОРА,,42.706398010253906,23.30733871459961,0,,,
A1548,1548,СЕЛО МАЛО БУЧИНО,,42.68207931518555,23.159982681274414,0,,,
A1660,1660,СТРАННОПРИЕМНИЦАТА,,42.61423873901367,23.5012149810791,0,,,
A0823,0823,КВ. ВРАЖДЕБНА,,42.712459564208984,23.4122314453125,0,,,
A0960,0960,КМЕТСТВО ИВАНЯНЕ,,42.707820892333984,23.182964324951172,0,,,
A1550,1550,СЕЛО МРАМОР,,42.785335540771484,23.273611068725586,0,,,
A1208,1208,ОРАНЖЕРИЯТА - ПО ЖЕЛАНИЕ,,42.801692962646484,23.33742904663086,0,,,
A1378,1378,ПО ЖЕЛАНИЕ,,42.711524963378906,23.19193458557129,0,,,
TM1570,1570,СЕМИНАРИЯТА,,42.67415237426758,23.33496856689453,0,,,
A1252,1252,ЗАПАДЕН ПАРК,,42.716217041015625,23.28511619567871,0,,,
A2737,2737,В.З. ПОДГУМЕР - ПО ЖЕЛАНИЕ,,42.80955123901367,23.40458869934082,0,,,
A0905,0905,КВ. ТРЕБИЧ - ПО ЖЕЛАНИЕ,,42.77519226074219,23.315385818481445,0,,,
A0988,0988,КУЛИНАРЕН К-Т ПЕЙФИЛ,,42.63854217529297,23.39719009399414,0,,,
A1234,1234,УЛ. КРАЛИ МАРКО,,42.78163528442383,23.49955177307129,0,,,
A6442,6442,КВ.ОВЧА КУПЕЛ,,42.6729621887207,23.251937866210938,0,,,
A0620,0620,Ж.К. ЗАПАДЕН ПАРК,,42.701595306396484,23.27654457092285,0,,,
A2813,2813,ВИТОШКО ЛАЛЕ,,42.58625030517578,23.304912567138672,0,,,
A0025,0025,28-МИ ДКЦ,,42.66620635986328,23.406097412109375,0,,,
A2801,2801,СЕЛО ДОЛНИ ЛОЗЕН,,42.59957504272461,23.49917984008789,0,,,
M201,201,ЛОМСКО ШОСЕ,,42.74046325683594,23.28734016418457,0,,,
A1468,1468,РЕМОНТНА БАЗА,,42.71337127685547,23.15944480895996,0,,,
A0526,0526,УЛ. ЛАГАДИНА,,42.6306266784668,23.31438446044922,0,,,
TB2326,2326,ХОТЕЛ ПЛИСКА,,42.67502212524414,23.359153747558594,0,,,
OM_N18,,,,42.69045639038086,23.33646583557129,3,OMSt,,-2
A1161,1161,117 - ТО СОУ,,42.757347106933594,23.555667877197266,0,,,
A2810,2810,УЛ. ХАН КУБРАТ,,42.724849700927734,23.304182052612305,0,,,
TM0892,0892,Кв. Павлово,,42.66789627075195,23.26600456237793,0,,,
A2781,2781,ЗООПАРКА,,42.65767288208008,23.32798194885254,0,,,
A0126,0126,БЛ. 10 Ж.К. ЛЕВСКИ-Г,,42.71311569213867,23.380338668823242,0,,,
A0443,0443,УМБАЛ СВ. ЕКАТЕРИНА,,42.68604278564453,23.311748504638672,0,,,
TB2210,2210,УЛ. Т. КАБЛЕШКОВ,,42.669246673583984,23.277379989624023,0,,,
TB1241,1241,ПЛ. ВАСИЛ ЛЕВСКИ,,42.6981315612793,23.334976196289062,0,,,
A0784,0784,УЛ. ДРУЖБА,,42.774112701416016,23.246906280517578,0,,,
A2696,2696,РАЗКЛОНА ЗА ДРАГАЛЕВСКИ МАНАСТИР - ПО ЖЕЛАНИЕ,,42.61994171142578,23.297361373901367,0,,,
TB2122,2122,УЛ. ПОП БОГОМИЛ,,42.70314407348633,23.328914642333984,0,,,
A0965,0965,УЛ. СТРАНДЖА,,42.709957122802734,23.139949798583984,0,,,
A2457,2457,СТОКОВ БАЗАР ИЛИЯНЦИ,,42.74073791503906,23.31764030456543,0,,,
A0051,0051,АВТОСТАНЦИЯ БАНКЯ,,42.70823669433594,23.152225494384766,0,,,
A0449,0449,ГАРА ВОЛУЯК,,42.757118225097656,23.244468688964844,0,,,
A2508,2508,БЛ. 60 СТУДЕНТСКИ ГРАД,,42.643043518066406,23.340036392211914,0,,,
A2765,2765,КВ. РЕПУБЛИКА,,42.73727798461914,23.243196487426758,0,,,
TM1777,1777,КВ. ТРИЪГЪЛНИКА,,42.719627380371094,23.309219360351562,0,,,
A2154,2154,УЛ. РЕЗБАРСКА,,42.71025466918945,23.355236053466797,0,,,
A2415,2415,УЛ. МЛАДОСТ - ПО ЖЕЛАНИЕ,,42.79997634887695,23.400863647460938,0,,,
A2569,2569,БЛ. 13 Ж.К. ЗАПАДЕН ПАРК,,42.70175552368164,23.281726837158203,0,,,
A0269,0269,БУЛ. АКАД. ИВ. ГЕШОВ,,42.6800422668457,23.302507400512695,0,,,
A1420,1420,ПТИЦЕФЕРМАТА,,42.72563552856445,23.374197006225586,0,,,
A2133,2133,УЛ. ПОРУЧИК ГР. ЗАГОРСКИ,,42.71841049194336,23.23985481262207,0,,,
A1504,1504,СБА - ПО ЖЕЛАНИЕ,,42.61958694458008,23.403276443481445,0,,,
A0659,0659,ХОТЕЛ АМБАСАДОР,,42.63848876953125,23.33441162109375,0,,,
A1780,1780,ТРИЪГЪЛНИКА КВ. ГОРУБЛЯНЕ,,42.641971588134766,23.402753829956055,0,,,
TM2588,2588,БУЛ. ПРОФ. ЦВ. ЛАЗАРОВ,,42.651092529296875,23.4056339263916,0,,,
TM1045,1045,МЕТРОСТАНЦИЯ ВАРДАР,,42.70600891113281,23.283803939819336,0,,,
A0288,0288,БУЛ. БРАТЯ БЪКСТОН,,42.67475128173828,23.279016494750977,0,,,
A0427,0427,УЛ. ЗЛАТЕН ВЕК,,42.6225700378418,23.332807540893555,0,,,
A2362,2362,ПЛ. ВИТОША,,42.756141662597656,23.429752349853516,0,,,
A6115,6115,ГОРУБЛЯНСКО ХАНЧЕ,,42.639198303222656,23.411115646362305,0,,,
TM1908,1908,ПЛ. СЛАВЕЙКОВ,,42.6915397644043,23.32480812072754,0,,,
A1785,1785,ТРЪНСКА МАХАЛА,,42.66826248168945,23.424671173095703,0,,,
A1898,1898,УЛ. ГЕН. НИКОЛА ЖЕКОВ,,42.73360824584961,23.308147430419922,0,,,
A1412,1412,ПРЕЧИСТВАТЕЛНА СТАНЦИЯ,,42.753875732421875,23.352596282958984,0,,,
A1679,1679,НАЧАЛО С. ПОДГУМЕР - ПО ЖЕЛАНИЕ,,42.797698974609375,23.398122787475586,0,,,
TM2086,2086,УЛ. ОПЪЛЧЕНСКА,,42.701202392578125,23.310205459594727,0,,,
A0510,0510,ГРОБИЩЕН ПАРК ДРАГАЛЕВЦИ,,42.633758544921875,23.3105525970459,0,,,
A1189,1189,ПРОМИШЛЕНА ЗОНА - ЛОМСКО ШОСЕ,,42.75483703613281,23.271953582763672,0,,,
A0338,0338,БУЛ. МАДРИД,,42.696285247802734,23.35175132751465,0,,,
A0934,0934,КМЕТСТВО БОЖУРИЩЕ,,42.76325607299805,23.198169708251953,0,,,
A0385,0385,БУЛ. ХРИСТО БОТЕВ,,42.705020904541016,23.318649291992188,0,,,
A1981,1981,УЛ. КАП. В. ДАНАДЖИЕВ,,42.713844299316406,23.24569320678711,0,,,
A2330,2330,ХОТЕЛ ХЕМУС,,42.67911911010742,23.32183837890625,0,,,
A1765,1765,УЛ. ТРАКИЙСКА МОГИЛА,,42.78376007080078,23.394916534423828,0,,,
A6253,6253,МОСТА НА СУХАТА РЕКА - ВРЕМЕННА,,42.629661560058594,23.333415985107422,0,,,
A1524,1524,СЕЛО ГОРНИ ЛОЗЕН,,42.60166549682617,23.48284912109375,0,,,
A0498,0498,ГОРУБЛЯНСКО ХАНЧЕ,,42.63770294189453,23.411230087280273,0,,,
A1450,1450,РАЗКЛОНА ЗА АП ДРУЖБА,,42.649169921875,23.413497924804688,0,,,
TB1287,1287,ПЛ. ОРЛОВ МОСТ,,42.68933868408203,23.338899612426758,0,,,
A0724,0724,УЛ. ПОРУЧИК ХР.ТОПРАКЧИЕВ,,42.6680908203125,23.413057327270508,0,,,
TB2491,2491,МЕТРОСТАНЦИЯ БИЗНЕС ПАРК,,42.62816619873047,23.37347412109375,0,,,
TM0656,0656,ж.к. Люлин-5,,42.71337127685547,23.23796272277832,0,,,
A0119,0119,109-ТО ОУ,,42.6901741027832,23.37018585205078,0,,,
A1162,1162,117 - ТО СОУ,,42.75757598876953,23.555522918701172,0,,,
TB2342,2342,ЦЕНТЪР ПО ХИГИЕНА,,42.68263244628906,23.30171775817871,0,,,
A0074,0074,БУЛ. ПЕЙО ЯВОРОВ,,42.68233108520508,23.348888397216797,0,,,
A0760,0760,УМБАЛСМ ПИРОГОВ,,42.68952941894531,23.305635452270508,0,,,
A2074,2074,УЛ. ОБОРИЩЕ,,42.69319152832031,23.35462188720703,0,,,
A2739,2739,МЕТРОСТАНЦИЯ ДРУЖБА,,42.65816116333008,23.39364242553711,0,,,
A0715,0715,СПИИДО ЕООД,,42.72120666503906,23.28473472595215,0,,,
A1311,1311,ПЛ. СТОЧНА ГАРА,,42.70505905151367,23.330923080444336,0,,,
A0301,0301,БУЛ. ВИТОША,,42.683738708496094,23.314743041992188,0,,,
A1911,1911,УЛ. ГОЦЕ ДЕЛЧЕВ,,42.71271896362305,23.274478912353516,0,,,
TM6400,6400,БУЛ. ПРАГА,,42.6898193359375,23.314193725585938,0,,,
A2687,2687,ОКОЛОВРЪСТЕН ПЪТ,,42.75741195678711,23.269393920898438,0,,,
A6698,6698,БУЛ. РОЖЕН,,42.73219299316406,23.313596725463867,0,,,
A1621,1621,НАЧАЛО С. ДОБРОСЛАВЦИ,,42.818084716796875,23.280677795410156,0,,,
A6724,6724,ж.к. Хаджи Димитър - временна,,42.709659576416016,23.361095428466797,0,,,
A2511,2511,ПО ЖЕЛАНИЕ,,42.68827438354492,23.451812744140625,0,,,
TB6525,6525,ВМА - ВРЕМЕННА,,42.684417724609375,23.3021240234375,0,,,
A1579,1579,РАЗКЛОНА ЗА КВ. ВРАЖДЕБНА,,42.70926284790039,23.397113800048828,0,,,
TB0074,0074,БУЛ. ПЕЙО ЯВОРОВ,,42.68233108520508,23.348888397216797,0,,,
A0893,0893,КВ. ПАВЛОВО,,42.66752624511719,23.266094207763672,0,,,
TB1858,1858,УЛ. БЯЛО МОРЕ,,42.69904708862305,23.33916664123535,0,,,
A1142,1142,УЛ. ЗАД СЕЛО,,42.683448791503906,23.459043502807617,0,,,
A6516,6516,БУЛ. БОТЕВГРАДСКО ШОСЕ,,42.70974349975586,23.421855926513672,0,,,
A6135,6135,Ж.К. ХИПОДРУМА,,42.683021545410156,23.292449951171875,0,,,
A0433,0433,В.З. СУХОДОЛ,,42.7009391784668,23.200414657592773,0,,,
A1090,1090,МОСТА ЗА РЕЗИДЕНЦИЯ ВРАНА,,42.6364860534668,23.421072006225586,0,,,
TB0238,0238,БЛ. 6 Ж.К. МЛАДОСТ-1,,42.658172607421875,23.377756118774414,0,,,
A2082,2082,УЛ. ОПЪЛЧЕНСКА,,42.70616912841797,23.311046600341797,0,,,
A1059,1059,МЕТРОСТАНЦИЯ СЛИВНИЦА,,42.72740936279297,23.261056900024414,0,,,
TM1873,1873,УЛ. ВИТИНЯ,,42.700843811035156,23.37432861328125,0,,,
A0805,0805,КВ. БЕНКОВСКИ,,42.744930267333984,23.347909927368164,0,,,
A2064,2064,ХИТ МАРКЕТ ЛЮЛИН,,42.73056411743164,23.265783309936523,0,,,
A1586,1586,СЛАТИНА БУЛГАРПЛОД,,42.67887496948242,23.38340187072754,0,,,
A0045,0045,УЛ. ПОЩЕНСКА,,42.721771240234375,23.342134475708008,0,,,
A1489,1489,РУМЪНСКО ПОСОЛСТВО,,42.68607711791992,23.351272583007812,0,,,
TM0326,0326,БУЛ. К. ВЕЛИЧКОВ,,42.700618743896484,23.296459197998047,0,,,
A1039,1039,СТАДИОНА ГЕРМАН,,42.61750793457031,23.41743278503418,0,,,
TM0547,0547,БУЛ. РОЖЕН,,42.73087692260742,23.313385009765625,0,,,
A6162,6162,УЛ. ПЕРНИК,,42.701480865478516,23.301490783691406,0,,,
A0924,0924,БАЛКАНКЕРАМИК АД - ПО ЖЕЛАНИЕ,,42.80690383911133,23.34844207763672,0,,,
A2359,2359,УЛ. РАЛИЦА,,42.603294372558594,23.47463607788086,0,,,
A1418,1418,ПРОСТОР,,42.695438385009766,23.24457359313965,0,,,
A2339,2339,ЦЕНТЪР КВ. АБДОВИЦА,,42.664791107177734,23.423023223876953,0,,,
A0737,0737,ЗЕЛЕНЧУКОВА ГРАДИНА,,42.75027847290039,23.399213790893555,0,,,
A2342,2342,ЦЕНТЪР ПО ХИГИЕНА,,42.68263244628906,23.30171775817871,0,,,
A1802,1802,УЛ. 5,,42.63536834716797,23.299415588378906,0,,,
A0928,0928,ЧИТАЛИЩЕ Д-Р П. БЕРОН,,42.6761589050293,23.309030532836914,0,,,
A0664,0664,Ж.К. МЛАДОСТ-2,,42.645591735839844,23.367431640625,0,,,
A2416,2416,УЛ. МЛАДОСТ - ПО ЖЕЛАНИЕ,,42.799800872802734,23.400789260864258,0,,,
A2505,2505,УЛ. ХАН КРУМ КВ. МАКСИМ ГОРКИ,,42.773048400878906,23.1851863861084,0,,,
A0836,0836,КВ. ДРАГАЛЕВЦИ,,42.629215240478516,23.308992385864258,0,,,
A0826,0826,ГАРА ИСКЪР,,42.66334533691406,23.415849685668945,0,,,
TM1988,1988,УЛ. КИРИЛ БЛАГОЕВ,,42.75110626220703,23.320547103881836,0,,,
A1947,1947,УЛ. ЗЛАТИЦА,,42.70747756958008,23.353557586669922,0,,,
A0884,0884,КВ. ОРЛАНДОВЦИ,,42.71790313720703,23.338937759399414,0,,,
A1030,1030,УЛ. МОНТЕВИДЕО,,42.69541549682617,23.25206184387207,0,,,
A0565,0565,БАЛКАНКАР АД,,42.686649322509766,23.274980545043945,0,,,
A2328,2328,ХОТЕЛ ХЕМУС,,42.67840576171875,23.321163177490234,0,,,
TM0911,0911,МЕТРОСТАНЦИЯ ВИТОША,,42.66009521484375,23.317087173461914,0,,,
TM2073,2073,УЛ. ОБОРИЩЕ,,42.692657470703125,23.35517692565918,0,,,
A2390,2390,БИЗНЕС ПАРК СОФИЯ,,42.62864685058594,23.375146865844727,0,,,
TB0162,0162,БЛ. 207 Ж.К. ОБЕЛЯ-2,,42.746490478515625,23.269306182861328,0,,,
A0484,0484,УЛ. Т. КАБЛЕШКОВ,,42.662105560302734,23.295574188232422,0,,,
A1196,1196,УМБАЛ СВ. АННА,,42.66276168823242,23.376901626586914,0,,,
TB6616,6616,Ж.К. МЛАДОСТ-1,,42.65062713623047,23.36768913269043,0,,,
TM1915,1915,УЛ. ГРОЗДЕН,,42.74856948852539,23.319547653198242,0,,,
A2688,2688,Ж.К. БОКАР,,42.660911560058594,23.28606605529785,0,,,
TM1051,1051,МЕТРОСТАНЦИЯ К. ВЕЛИЧКОВ,,42.70144271850586,23.297544479370117,0,,,
A2473,2473,НОВА ТЕЛЕВИЗИЯ,,42.67978286743164,23.400251388549805,0,,,
A0856,0856,КВ. КУМАРИЦА - ПО ЖЕЛАНИЕ,,42.800846099853516,23.341388702392578,0,,,
A0021,0021,26-ТИ ДКЦ,,42.725101470947266,23.255577087402344,0,,,
A0859,0859,КВ. КУМАРИЦА - ПО ЖЕЛАНИЕ,,42.79994201660156,23.340988159179688,0,,,
A2366,2366,ЧИТАЛИЩЕ Д. ЧИНТУЛОВ,,42.66326904296875,23.34474754333496,0,,,
A0297,0297,БУЛ. ВАСИЛ ЛЕВСКИ,,42.69877624511719,23.33546257019043,0,,,
A6492,6492,УЛ. САМОКОВСКО ШОСЕ,,42.63863754272461,23.4060001373291,0,,,
TM2298,2298,ТЪРГОВСКИ К-С НАДЕЖДА,,42.72645568847656,23.30272674560547,0,,,
A1294,1294,ПЛ. ПИРДОП,,42.699195861816406,23.36073875427246,0,,,
A2680,2680,МЕТРОСТАНЦИЯ ЦАРИГРАДСКО ШОСЕ,,42.649898529052734,23.39276885986328,0,,,
A2716,2716,ПО ЖЕЛАНИЕ,,42.657379150390625,23.203536987304688,0,,,
A0578,0578,БУЛ. ХРИСТОФОР КОЛУМБ,,42.662906646728516,23.39153289794922,0,,,
A0972,0972,КОРИЯТА,,42.632896423339844,23.427648544311523,0,,,
A2692,2692,УЛ. СТОЯН МИХАЙЛОВСКИ,,42.67306137084961,23.336883544921875,0,,,
A1368,1368,ПО ЖЕЛАНИЕ,,42.76116180419922,23.24412727355957,0,,,
A1512,1512,СЕЛО БИСТРИЦА,,42.586246490478516,23.360549926757812,0,,,
A2311,2311,ХЛАДИЛЕН ЗАВОД,,42.7082405090332,23.334087371826172,0,,,
A2821,2821,МЕТРОСТАНЦИЯ ХАДЖИ ДИМИТЪР,,42.70266342163086,23.35374641418457,0,,,
TB1716,1716,ОБЩИНА ЛЮЛИН,,42.716426849365234,23.250442504882812,0,,,
A2372,2372,ДОМ НА КУЛТУРАТА ИСКЪР,,42.66489028930664,23.399377822875977,0,,,
TB0334,0334,БУЛ. ЛОМСКО ШОСЕ,,42.73596954345703,23.294036865234375,0,,,
A2079,2079,УЛ. ОПЪЛЧЕНСКА,,42.71257019042969,23.31627082824707,0,,,
TB2452,2452,РВД,,42.68402099609375,23.40929412841797,0,,,
A6323,6323,Ул. Ком,,42.72404861450195,23.33645248413086,0,,,
A1150,1150,СТРАННОПРИЕМНИЦАТА,,42.61436462402344,23.501346588134766,0,,,
A0833,0833,КВ. Д. МИЛЕНКОВ,,42.656742095947266,23.42790412902832,0,,,
A1693,1693,СТУДЕНТСКИ ГРАД,,42.646827697753906,23.346609115600586,0,,,
A0481,0481,УЛ. СИНЧЕЦ,,42.78178787231445,23.383699417114258,0,,,
A2742,2742,МЕТРОСТАНЦИЯ АЛ. МАЛИНОВ,,42.646419525146484,23.376970291137695,0,,,
A1670,1670,УЛ. ЛИПА,,42.68608093261719,23.165494918823242,0,,,
A1536,1536,СЕЛО ЖИТЕН,,42.818260192871094,23.25104522705078,0,,,
A0749,0749,ЗООПАРКА,,42.65825271606445,23.3284912109375,0,,,
A0889,0889,КВ. ПАВЛОВО,,42.66777420043945,23.26563835144043,0,,,
A2538,2538,УЛ. МАЛЬОВИЦА - ПО ЖЕЛАНИЕ,,42.82624816894531,23.350910186767578,0,,,
TB2111,2111,УЛ. ПИРОТСКА,,42.70136260986328,23.310392379760742,0,,,
TM0383,0383,БУЛ. ХРИСТО БОТЕВ,,42.70016098022461,23.31641387939453,0,,,
A0955,0955,ОБЩИНА НОВИ ИСКЪР - ПО ЖЕЛАНИЕ,,42.80280685424805,23.343591690063477,0,,,
A1186,1186,ОКОЛОВРЪСТЕН ПЪТ - ПО ЖЕЛАНИЕ,,42.77910614013672,23.31333351135254,0,,,
A1516,1516,СЕЛО ВОЙНЕГОВЦИ,,42.803955078125,23.422870635986328,0,,,
A2326,2326,ХОТЕЛ ПЛИСКА,,42.67502212524414,23.359153747558594,0,,,
A2357,2357,УЛ. ПРОФ. АЛ. СТАНИШЕВ,,42.723915100097656,23.259183883666992,0,,,
TM2249,2249,УЛ. ЦАР СИМЕОН,,42.70561981201172,23.298803329467773,0,,,
A2689,2689,Ж.К. БОКАР,,42.65974426269531,23.2852840423584,0,,,
TB2676,2676,БЛ. 245 Ж.К. ОБЕЛЯ-2,,42.74673080444336,23.279682159423828,0,,,
TB0626,0626,Ж.К. ИВАН ВАЗОВ,,42.67524719238281,23.30354118347168,0,,,
A6612,6612,МЕТРОСТАНЦИЯ ВАРДАР,,42.70609664916992,23.283658981323242,0,,,
TB1152,1152,СК ЦСКА,,42.674781799316406,23.376832962036133,0,,,
A2410,2410,УЛ. ПРОЛЕТ,,42.630558013916016,23.19405174255371,0,,,
A6606,6606,ОКОЛОВРЪСТЕН ПЪТ,,42.623985290527344,23.357816696166992,0,,,
TM1254,1254,ПЕТА ГРАДСКА БОЛНИЦА,,42.71341323852539,23.314985275268555,0,,,
A0841,0841,КВ. ИЗГРЕВ - ПО ЖЕЛАНИЕ,,42.819854736328125,23.373016357421875,0,,,
TM0300,0300,БУЛ. ВАСИЛ ЛЕВСКИ,,42.687992095947266,23.3291072845459,0,,,
A1517,1517,СЕЛО ГЕРМАН,,42.6097297668457,23.41045379638672,0,,,
A2622,2622,АВТОСТАНЦИЯ КНЯЖЕВО,,42.658363342285156,23.240474700927734,0,,,
A1903,1903,УЛ. ГЕН. ГУРКО,,42.69059753417969,23.332088470458984,0,,,
A2286,2286,УЛ. УЧИЛИЩНА,,42.761051177978516,23.429595947265625,0,,,
A1515,1515,КМЕТСТВО ВЛАДАЯ,,42.62832260131836,23.19518280029297,0,,,
TM0295,0295,БУЛ. ВАРДАР,,42.69572448730469,23.286752700805664,0,,,
TM1731,1731,ТЕЛЕВИЗИОННА КУЛА,,42.67604064941406,23.343364715576172,0,,,
A2306,2306,ХИПЕРМАРКЕТ БИЛА,,42.720401763916016,23.25566864013672,0,,,
A6027,6027,УЛ. ЗАРНИЧЕ,,42.75270080566406,23.21547508239746,0,,,
TB0382,0382,БУЛ. ХРИСТО БОТЕВ,,42.70576095581055,23.316879272460938,0,,,
TB2012,2012,УЛ. КРАКРА,,42.69723892211914,23.33786964416504,0,,,
A0165,0165,БЛ. 214 Ж.К. БОРОВО,,42.66880798339844,23.279632568359375,0,,,
A0462,0462,ГАРА ПИОНЕР,,42.666595458984375,23.338594436645508,0,,,
A0857,0857,КВ. КУМАРИЦА,,42.80109405517578,23.340251922607422,0,,,
A1866,1866,УЛ. ВЕЛЧО АТАНАСОВ,,42.69675827026367,23.35967254638672,0,,,
A2050,2050,УЛ. МОНТЕВИДЕО,,42.67158889770508,23.251792907714844,0,,,
A6074,6074,ОКОЛОВРЪСТЕН ПЪТ-временна,,42.62145233154297,23.420557022094727,0,,,
TM1135,1135,НДК,,42.68584060668945,23.31772232055664,0,,,
TB2024,2024,АВТОСТАНЦИЯ ИЗТОК,,42.703208923339844,23.38633155822754,0,,,
TB0516,0516,Депо Искър,,42.6544075012207,23.411029815673828,0,,,
A6520,6520,СУПЕРМАРКЕТ,,42.736637115478516,23.515409469604492,0,,,
A0283,0283,БУЛ. АЛ. СТАМБОЛИЙСКИ,,42.69801712036133,23.309436798095703,0,,,
A2305,2305,ХИПЕРМАРКЕТ БИЛА,,42.72019577026367,23.254404067993164,0,,,
TB2780,2780,Метростанция Витоша,,42.657535552978516,23.316293716430664,0,,,
A0636,0636,Ж.К. КРАСНО СЕЛО,,42.679100036621094,23.285612106323242,0,,,
A0788,0788,КАНТОНА,,42.708492279052734,23.435964584350586,0,,,
A6651,6651,УЛ. 7 - ВРЕМЕННА,,42.744728088378906,23.265573501586914,0,,,
A2562,2562,УЛ. АНДРЕЙ ГЕРМАНОВ,,42.73758316040039,23.261240005493164,0,,,
A0814,0814,КВ. БУСМАНЦИ,,42.67548751831055,23.433504104614258,0,,,
A6325,6325,УЛ. МЕЛОДИЯ,,42.722801208496094,23.332883834838867,0,,,
A1983,1983,УЛ. КАП. Д. СПИСАРЕВСКИ,,42.67329406738281,23.386287689208984,0,,,
A6147,6147,БУЛ. РОЖЕН,,42.73284149169922,23.313678741455078,0,,,
A2124,2124,УЛ. ПОП ГРУЙО,,42.710411071777344,23.37950325012207,0,,,
A1190,1190,ПРОМИШЛЕНА ЗОНА - ЛОМСКО ШОСЕ,,42.755165100097656,23.271806716918945,0,,,
A0450,0450,ГАРА ВОЛУЯК,,42.756893157958984,23.244403839111328,0,,,
A2062,2062,УЛ. НИШАВА,,42.66994094848633,23.30390739440918,0,,,
A2547,2547,БИСТРИШКИ ТЕРАСИ - ПО ЖЕЛАНИЕ,,42.59843444824219,23.368501663208008,0,,,
A6699,6699,СТАДИОН ЛОКОМОТИВ,,42.738128662109375,23.316925048828125,0,,,
TM2003,2003,УЛ. КОЗЛОДУЙ,,42.70695877075195,23.32329559326172,0,,,
A0627,0627,Ж.К. ДИАНАБАД,,42.665260314941406,23.355419158935547,0,,,
A1511,1511,СЕЛО БАЛША,,42.85449981689453,23.264394760131836,0,,,
TB6169,6169,УЛ. ПОДП. КАЛИТИН - ВРЕМЕННА,,42.711143493652344,23.31005096435547,0,,,
A6682,6682,УЛ. КРУШАТА - ВРЕМЕННА,,42.79337692260742,23.32931137084961,0,,,
A2132,2132,УЛ. ПОРУЧИК ГР. ЗАГОРСКИ,,42.71784591674805,23.24060821533203,0,,,
A2507,2507,БЛ. 60 СТУДЕНТСКИ ГРАД,,42.643089294433594,23.340789794921875,0,,,
TM0886,0886,КВ. ОРЛАНДОВЦИ,,42.71763229370117,23.338804244995117,0,,,
A0970,0970,КОРАБЧЕТО,,42.6424560546875,23.40311622619629,0,,,
TM2067,2067,МЕТРОСТАНЦИЯ ОВЧА КУПЕЛ,,42.68232345581055,23.270692825317383,0,,,
A1599,1599,БАЛКАН СТАР,,42.71091842651367,23.35133171081543,0,,,
A2753,2753,БЛ. 458 Ж.К. МЛАДОСТ 4,,42.63777160644531,23.37312889099121,0,,,
TB0372,0372,БУЛ. ХРИСТОФОР КОЛУМБ,,42.660552978515625,23.392004013061523,0,,,
A0325,0325,БУЛ. К. ВЕЛИЧКОВ,,42.706993103027344,23.299978256225586,0,,,
TB1300,1300,ПЛ. РУСКИ ПАМЕТНИК,,42.693092346191406,23.310029983520508,0,,,
A2069,2069,УЛ. ОБИКОЛНА,,42.648746490478516,23.404504776000977,0,,,
A2091,2091,УЛ. ОРИОН,,42.718162536621094,23.2779598236084,0,,,
A2405,2405,ШКОЛА БЧК,,42.595096588134766,23.507707595825195,0,,,
A1695,1695,Ж.К. ИЗТОК,,42.6719970703125,23.363893508911133,0,,,
A2320,2320,ХОТЕЛ МАКСИ,,42.6417350769043,23.334562301635742,0,,,
A6726,6726,Ж.К. МЛАДОСТ 4- временна,,42.626399993896484,23.3837890625,0,,,
A1559,1559,СЕЛО СВЕТОВРАЧАНЕ,,42.78304672241211,23.390918731689453,0,,,
A1146,1146,ГРОБИЩЕН ПАРК МАЛАШЕВЦИ,,42.720306396484375,23.362781524658203,0,,,
A1609,1609,СК НА НСА,,42.6438102722168,23.34502410888672,0,,,
A2452,2452,РВД,,42.68402099609375,23.40929412841797,0,,,
A1127,1127,НАЧАЛО КВ. КЛИСУРА,,42.72039794921875,23.096633911132812,0,,,
A2482,2482,УЛ. ВИТИНЯ,,42.70905685424805,23.368946075439453,0,,,
M212,212,ВИТОША,,42.659305572509766,23.31645965576172,0,,,
TM0364,0364,БУЛ. ПРАГА,,42.68892288208008,23.314529418945312,0,,,
A0418,0418,ВМА,,42.684730529785156,23.302061080932617,0,,,
TB2354,2354,НЦ ПО РАДИОБИОЛОГИЯ - ПО ЖЕЛАНИЕ,,42.6322021484375,23.35479164123535,0,,,
TM1939,1939,УЛ. ДУНАВ,,42.7078742980957,23.329734802246094,0,,,
A1219,1219,ОЦ ОВЧА КУПЕЛ,,42.688087463378906,23.26319694519043,0,,,
A6477,6477,БУЛ.БРЮКСЕЛ,,42.6865119934082,23.400165557861328,0,,,
A1519,1519,СЕЛО ГОЛЯНОВЦИ,,42.82855224609375,23.239137649536133,0,,,
A6136,6136,УЛ. НИШАВА,,42.681339263916016,23.289356231689453,0,,,
TM2665,2665,ЦЕНТРАЛНА АВТОГАРА,,42.70949172973633,23.322036743164062,0,,,
A6470,6470,БЪЛГАРСКО НАЦИОНАЛНО РАДИО,,42.68429946899414,23.3333740234375,0,,,
TB2087,2087,УЛ. ОПЪЛЧЕНСКА,,42.70538330078125,23.313486099243164,0,,,
A1671,1671,УЛ. СПОРТИСТ - ПО ЖЕЛАНИЕ,,42.786834716796875,23.306608200073242,0,,,
A2418,2418,БУЛ. ЦАРИЦА ЙОАНА,,42.71138000488281,23.271894454956055,0,,,
TB2082,2082,УЛ. ОПЪЛЧЕНСКА,,42.70616912841797,23.311046600341797,0,,,
A1876,1876,ЯЗ. МАЛО БУЧИНО,,42.6970329284668,23.191070556640625,0,,,
A1672,1672,УЛ. СПОРТИСТ - ПО ЖЕЛАНИЕ,,42.78622817993164,23.30727195739746,0,,,
A6220,6220,ЦЕНТРАЛНА ГАРА,,42.71075439453125,23.319082260131836,0,,,
A6287,6287,ОКОЛОВР. ПЪТ - ВРЕМЕННА,,42.63252258300781,23.334457397460938,0,,,
TB1819,1819,УЛ. АЛЕКСАНДЪР ЖЕНДОВ,,42.6777458190918,23.355825424194336,0,,,
A2593,2593,ХЕРМЕС ПАРК,,42.66001510620117,23.380844116210938,0,,,
A2833,2833,РАЗКЛОНА ЗА С. ГЕРМАН,,42.621036529541016,23.420120239257812,0,,,
A2136,2136,БУЛ. ГОЦЕ ДЕЛЧЕВ,,42.67543029785156,23.287967681884766,0,,,
A0687,0687,Ж.К. СЛАТИНА,,42.679893493652344,23.371440887451172,0,,,
A1990,1990,УЛ. КИРИЛ ХРИСТОВ,,42.76956558227539,23.35942268371582,0,,,
A0725,0725,ЗАГ ДИНАМИК АД,,42.7318115234375,23.317415237426758,0,,,
A0895,0895,КВ. РЕПУБЛИКА,,42.7368278503418,23.242937088012695,0,,,
A0832,0832,КВ. ГРАДОМАН,,42.68562698364258,23.138776779174805,0,,,
A1678,1678,УЛ. 19,,42.602134704589844,23.16579818725586,0,,,
TM0036,0036,КВ. ГАРА ИСКЪР,,42.66231155395508,23.414958953857422,0,,,
A0358,0358,БУЛ. ПЕНЧО СЛАВЕЙКОВ,,42.68736267089844,23.31110191345215,0,,,
A6362,6362,УЛ. СТАРА ПЛАНИНА - ВРЕМЕННА,,42.7105827331543,23.144309997558594,0,,,
TM1573,1573,СЕМИНАРИЯТА,,42.67412185668945,23.33492660522461,0,,,
A0957,0957,ОБЩИНА БАНКЯ,,42.70603942871094,23.147960662841797,0,,,
A2453,2453,РВД,,42.68435287475586,23.40852165222168,0,,,
A6391,6391,КОЛЕЖ ПО ТЕЛЕКОМУНИКАЦИИ,,42.656532287597656,23.349864959716797,0,,,
TM0097,0097,НЦ ПО РЕХАБИЛИТАЦИЯ,,42.67693328857422,23.268028259277344,0,,,
A0431,0431,В.З. БАНКЯ,,42.696468353271484,23.14942169189453,0,,,
A1209,1209,ОРАНЖЕРИЯТА - ПО ЖЕЛАНИЕ,,42.80202102661133,23.33683204650879,0,,,
A2312,2312,ХЛАДИЛЕН ЗАВОД,,42.70849609375,23.332271575927734,0,,,
A6345,6345,ГАРА ИВАНЯНЕ,,42.716766357421875,23.170717239379883,0,,,
A0846,0846,КВ. ИЗГРЕВ - ПО ЖЕЛАНИЕ,,42.81996154785156,23.372804641723633,0,,,
A0943,0943,ЧИТАЛИЩЕ ПРОСВЕТА,,42.69599533081055,23.227615356445312,0,,,
A1367,1367,ПО ЖЕЛАНИЕ,,42.794368743896484,23.412500381469727,0,,,
A1655,1655,ПРОМИШЛЕНА ЗОНА,,42.72949981689453,23.38226318359375,0,,,
A6282,6282,ЦЕНТРАЛНА ГАРА - ВРЕМЕННА,,42.71136474609375,23.318750381469727,0,,,
TM2311,2311,ХЛАДИЛЕН ЗАВОД,,42.7082405090332,23.334087371826172,0,,,
A0224,0224,БЛ. 465 Ж.К. МЛАДОСТ-4,,42.62873458862305,23.383071899414062,0,,,
A0157,0157,БЛ. 205 Ж.К. МЛАДОСТ-2,,42.641788482666016,23.370943069458008,0,,,
A0405,0405,БУЛАВТО,,42.745418548583984,23.330121994018555,0,,,
A2391,2391,БИЗНЕС ПАРК СОФИЯ,,42.62873840332031,23.375038146972656,0,,,
TB0171,0171,БЛ. 241 Ж.К. ОБЕЛЯ-2,,42.748287200927734,23.27611541748047,0,,,
A6491,6491,УЛ. САМОКОВСКО ШОСЕ,,42.63856887817383,23.406118392944336,0,,,
A0862,0862,КВ. МАЛАШЕВЦИ,,42.71453094482422,23.347667694091797,0,,,
A6494,6494,БУЛ. ХРИСТО БОТЕВ,,42.699310302734375,23.31258773803711,0,,,
A1613,1613,СТАДИОН Г. АСПАРУХОВ,,42.706783294677734,23.36210060119629,0,,,
A6683,6683,УЛ. ПОБЕДА - ВРЕМЕННА,,42.79559326171875,23.331735610961914,0,,,
A1574,1574,СЕМИНАРИЯТА,,42.676639556884766,23.333555221557617,0,,,
A2368,2368,ЧИТАЛИЩЕ ОТЕЦ ПАИСИЙ,,42.6925163269043,23.359426498413086,0,,,
A2673,2673,ГАРА СОФИЯ СЕВЕР,,42.72623825073242,23.316038131713867,0,,,
A6369,6369,УЛ. АЛЕКО ТУРАНДЖА,,42.696983337402344,23.2872314453125,0,,,
A1347,1347,ПО ЖЕЛАНИЕ,,42.73374557495117,23.267826080322266,0,,,
A1527,1527,ЦЕНТЪР ДОЛНИ ЛОЗЕН,,42.6037483215332,23.493934631347656,0,,,
A1857,1857,УЛ. БЯЛО МОРЕ,,42.70227813720703,23.338825225830078,0,,,
A2163,2163,Ж.К. КРАСНА ПОЛЯНА,,42.697120666503906,23.277240753173828,0,,,
A2764,2764,ЗООПАРКА,,42.659122467041016,23.327577590942383,0,,,
A2799,2799,МАНАСТИР СВ. АПОСТОЛИ ПЕТЪР И ПАВЕЛ,,42.62731170654297,23.51264190673828,0,,,
A1369,1369,ПО ЖЕЛАНИЕ,,42.7613410949707,23.24402618408203,0,,,
A1728,1728,ТЕАТЪР СОФИЯ,,42.69606399536133,23.347549438476562,0,,,
TM0384,0384,БУЛ. ХРИСТО БОТЕВ,,42.70026779174805,23.315673828125,0,,,
A2168,2168,УЛ. САН СТЕФАНО,,42.696495056152344,23.339916229248047,0,,,
A2455,2455,ЛЕТИЩЕ СОФИЯ ТЕРМИНАЛ 2,,42.687931060791016,23.41331672668457,0,,,
A0430,0430,В.З. ГЕРМАН,,42.62492370605469,23.422325134277344,0,,,
A1581,1581,РАЗКЛОНА ЗА КВ. ВРАЖДЕБНА,,42.7082633972168,23.39984703063965,0,,,
TB2221,2221,УЛ. ТЪРНОВО,,42.72292709350586,23.261367797851562,0,,,
A6632,6632,КВ. БОЯНА - ВРЕМЕННА,,42.650146484375,23.26592445373535,0,,,
TB1344,1344,ПК СПАРТАК,,42.67546844482422,23.314727783203125,0,,,
A0545,0545,ПРОМИШЛЕНА ЗОНА КРИВИНА,,42.66975402832031,23.464235305786133,0,,,
A0765,0765,ДИПЛОМАТИЧЕСКИ КЛУБ,,42.672943115234375,23.246553421020508,0,,,
A2422,2422,СПЗ МОДЕРНО ПРЕДГРАДИЕ,,42.73577117919922,23.265342712402344,0,,,
TM0707,0707,БУЛ. ВАРДАР,,42.702125549316406,23.286447525024414,0,,,
A1131,1131,НАЧАЛО С. МЪРЧАЕВО,,42.61119079589844,23.179595947265625,0,,,
A2682,2682,КОМПЛЕКС НА БАН,,42.65332794189453,23.388896942138672,0,,,
A1288,1288,ПЛ. ОРЛОВ МОСТ,,42.68972396850586,23.338863372802734,0,,,
A0264,0264,БОЯНСКО ХАНЧЕ,,42.646602630615234,23.266855239868164,0,,,
TM0706,0706,БУЛ. ВАРДАР,,42.70222473144531,23.2860050201416,0,,,
A1099,1099,МОСТА НА Р. ИСКЪР,,42.73674392700195,23.395389556884766,0,,,
A2096,2096,УЛ. ОРЯХОВО,,42.71097183227539,23.2919921875,0,,,
A2248,2248,УЛ. ЦАР СИМЕОН,,42.70527648925781,23.29780387878418,0,,,
A2590,2590,УЛ. ИНЖ. ГЕОРГИ БЕЛОВ,,42.63679122924805,23.399564743041992,0,,,
A0428,0428,УЛ. ГЕРЕНА,,42.62632369995117,23.31793212890625,0,,,
A0514,0514,АВТОСЕРВИЗ,,42.714134216308594,23.35822296142578,0,,,
A0676,0676,ОБЩИНА ВРЪБНИЦА,,42.730220794677734,23.286907196044922,0,,,
TM2084,2084,УЛ. ОПЪЛЧЕНСКА,,42.69865798950195,23.30890464782715,0,,,
A6980,6980,109-ТО ОУ - ВРЕМЕННА,,42.689334869384766,23.369503021240234,0,,,
A2519,2519,УЛ. ПРОСВЕТА,,42.72450637817383,23.31625747680664,0,,,
TB0363,0363,БУЛ. ПРАГА,,42.68879699707031,23.314794540405273,0,,,
A0109,0109,БЛ. 33 Ж.К. СЛАТИНА,,42.68794250488281,23.37535285949707,0,,,
A1349,1349,НАЧАЛО КВ Д. МИЛЕНКОВ,,42.65991973876953,23.423315048217773,0,,,
TB1763,1763,ПГХМБТ ПРОФ. П. РАЙКОВ,,42.73234176635742,23.312232971191406,0,,,
A0865,0865,УЛ. БИСТРИШКО ШОСЕ,,42.624244689941406,23.35649299621582,0,,,
A6603,6603,Бул. Варна,,42.7120246887207,23.151290893554688,0,,,
A0630,0630,Ж.К. ДИАНАБАД,,42.66504669189453,23.35540771484375,0,,,
A1394,1394,БЪЛГАРСКА ТЕЛЕГРАФНА АГЕНЦИЯ,,42.68580627441406,23.343942642211914,0,,,
A2717,2717,ПО ЖЕЛАНИЕ,,42.65730667114258,23.203933715820312,0,,,
TB0032,0032,36-ТО СОУ,,42.67348098754883,23.285932540893555,0,,,
A2784,2784,МБАЛ ВИТА,,42.65684127807617,23.32103157043457,0,,,
A2351,2351,ТЕХНИЧЕСКА БИБЛИОТЕКА,,42.66450500488281,23.36071014404297,0,,,
A6356,6356,КВ. ИЗГРЕВ,,42.71469497680664,23.173341751098633,0,,,
A2303,2303,РЕСТОРАНТ ЧЕРНАТА КОТКА,,42.631961822509766,23.453449249267578,0,,,
A2066,2066,УЛ. ОБИКОЛНА,,42.6483268737793,23.4038028717041,0,,,
A1097,1097,МОСТА НА Р. ИСКЪР,,42.70878219604492,23.41904067993164,0,,,
A0974,0974,СОФИЯ МЕД АД,,42.65825653076172,23.415054321289062,0,,,
A1359,1359,КАРИЕРНИ МАТЕРИАЛИ АД,,42.75228500366211,23.42046356201172,0,,,
A1405,1405,11-ТИ ПОЩЕНСКИ КЛОН,,42.684844970703125,23.357534408569336,0,,,
TB6410,6410,БУЛ. ПРАГА,,42.68997573852539,23.3131046295166,0,,,
A1203,1203,ОПИТНА СТАНЦИЯ,,42.74501037597656,23.39958381652832,0,,,
TM1925,1925,УЛ. ДИМИТЪР ПЕТКОВ,,42.70004653930664,23.29994773864746,0,,,
A1648,1648,МАХАЛА БАТАРЕЯТА,,42.7095947265625,23.42409896850586,0,,,
A1637,1637,ХЮНДАЙ БЪЛГАРИЯ,,42.74396896362305,23.317890167236328,0,,,
A2655,2655,КВ. ХЛАДИЛНИКА,,42.66157531738281,23.31681251525879,0,,,
TM1272,1272,ПЛ. ВЪЗРАЖДАНЕ,,42.69837188720703,23.31407356262207,0,,,
TM1329,1329,ЦЕНТРАЛНА ГАРА,,42.71099853515625,23.320270538330078,0,,,
A0530,0530,ДЕТСКИ ДОМ,,42.65367126464844,23.34440040588379,0,,,
A2327,2327,ХОТЕЛ ПЛИСКА,,42.67555618286133,23.3588924407959,0,,,
A2733,2733,ПАЗАР МАЛАШЕВЦИ,,42.71852111816406,23.359216690063477,0,,,
M9,9,СТАДИОН ВАСИЛ ЛЕВСКИ,,42.686126708984375,23.33218002319336,0,,,
A2324,2324,ХОТЕЛ ПЛИСКА,,42.67608642578125,23.35926055908203,0,,,
TB2659,2659,МЕТРОСТАНЦИЯ ЛОМСКО ШОСЕ,,42.74118423461914,23.286832809448242,0,,,
TB6478,6478,НДК,,42.688594818115234,23.318954467773438,0,,,
TB2158,2158,УЛ. РИЛСКА ОБИТЕЛ,,42.70153045654297,23.378915786743164,0,,,
TB2678,2678,БЛ. 245 Ж.К. МЛАДОСТ 2,,42.646419525146484,23.36805534362793,0,,,
A0302,0302,БУЛ. ВИТОША,,42.6837043762207,23.314205169677734,0,,,
A0868,0868,КВ. МАНАСТИРСКИ ЛИВАДИ,,42.656951904296875,23.284931182861328,0,,,
A0350,0350,БУЛ. НИКОЛА ПЕТКОВ,,42.66872024536133,23.25519371032715,0,,,
A6723,6723,ж.к. Хаджи Димитър - временна,,42.709842681884766,23.36089515686035,0,,,
M206,206,ЦЕНТРАЛНА ГАРА,,42.710166931152344,23.322229385375977,0,,,
